Name,Status,District,Population Census 1991-03-01,Population Census 2001-03-01,Population Census 2011-03-01,query,lat,lon
Abiramam,Town Panchayat,Ramanathapuram,...,"6,638","8,144","Abiramam, Ramanathapuram, Tamil Nadu, India",9.4420721,78.4396376
Acharapakkam,Town Panchayat,Kanchipuram,...,"9,023","10,362","Acharapakkam, Kanchipuram, Tamil Nadu, India",12.5518808,79.7696115
Agaram,Town Panchayat,Dindigul,...,"12,784","15,610","Agaram, Dindigul, Tamil Nadu, India",10.4553491,77.9237356
Agastheeswaram,Town Panchayat,Kanniyakumari,...,"8,995","9,717","Agastheeswaram, Kanniyakumari, Tamil Nadu, India",8.1547817,77.4585065
Alamathi,Census Town,Thiruvallur,...,"5,812","7,424","Alamathi, Thiruvallur, Tamil Nadu, India",13.2114346,80.1135542
Alamelumangapuram,Census Town,Vellore,...,"5,368","7,900","Alamelumangapuram, Vellore, Tamil Nadu, India",12.94454,79.189664
Alampalayam,Town Panchayat,Namakkal,...,"15,255","20,286","Alampalayam, Namakkal, Tamil Nadu, India",11.5322199,78.1120175
Alanganallur,Town Panchayat,Madurai,...,"11,078","12,331","Alanganallur, Madurai, Tamil Nadu, India",10.0463572,78.0878055
Alangayam,Town Panchayat,Vellore,...,"16,851","18,327","Alangayam, Vellore, Tamil Nadu, India",12.6326913,78.8077313
Alangudi,Town Panchayat,Pudukkottai,"10,882","10,761","12,367","Alangudi, Pudukkottai, Tamil Nadu, India",10.3603703,78.9778724
Alangulam,Census Town,Virudhunagar,...,"4,969","4,930","Alangulam, Virudhunagar, Tamil Nadu, India",9.3643985,77.6764891
Alangulam,Town Panchayat,Tirunelveli,...,"17,923","20,948","Alangulam, Tirunelveli, Tamil Nadu, India",8.7116971,77.4566251
Alanthurai,Town Panchayat,Coimbatore,...,"7,130","7,221","Alanthurai, Coimbatore, Tamil Nadu, India",10.9541167,76.7905294
Alapakkam,Census Town,Kanchipuram,...,"5,015","9,404","Alapakkam, Kanchipuram, Tamil Nadu, India",12.6822387,79.9060182
Alwarkurichi,Town Panchayat,Tirunelveli,...,"9,459","10,045","Alwarkurichi, Tirunelveli, Tamil Nadu, India",8.7836325,77.3463695
Amathur,Census Town,Virudhunagar,...,"4,163","4,708","Amathur, Virudhunagar, Tamil Nadu, India",9.5621155,77.8588242
Ambasamudram,Municipality,Tirunelveli,"33,893","32,739","35,645","Ambasamudram, Tirunelveli, Tamil Nadu, India",8.7082538,77.4382732
Ambattur,Municipality,Thiruvallur,"215,424","310,967","466,205","Ambattur, Thiruvallur, Tamil Nadu, India",13.1193746,80.1507648
Ambur,Municipality,Vellore,"75,911","99,624","114,608","Ambur, Vellore, Tamil Nadu, India",12.7084659,78.7779287
Ammapattinam,Census Town,Pudukkottai,...,...,"6,652","Ammapattinam, Pudukkottai, Tamil Nadu, India",10.0153555,79.2313753
Ammapettai,Town Panchayat,Erode,...,"9,259","9,677","Ammapettai, Erode, Tamil Nadu, India",11.6197947,77.7426153
Ammapettai,Town Panchayat,Thanjavur,...,"13,901","14,572","Ammapettai, Thanjavur, Tamil Nadu, India",10.9484223,79.345065
Ammoor,Town Panchayat,Vellore,...,"11,296","12,513","Ammoor, Vellore, Tamil Nadu, India",12.9827403,79.3626012
Anaimalai,Town Panchayat,Coimbatore,...,"16,467","17,208","Anaimalai, Coimbatore, Tamil Nadu, India",10.5822989,76.9343247
Anaiyur,Municipality,Madurai,"17,659","38,310","63,917","Anaiyur, Madurai, Tamil Nadu, India",9.9610312,78.1057313
Anaiyur,Census Town,Virudhunagar,...,"19,898","24,436","Anaiyur, Virudhunagar, Tamil Nadu, India",9.4482831,77.7675517
Andipalayam,Census Town,Tiruppur,...,"11,350","25,539","Andipalayam, Tiruppur, Tamil Nadu, India",11.0993075,77.3174479
Annalagraharam,Census Town,Thanjavur,...,"6,266","11,129","Annalagraharam, Thanjavur, Tamil Nadu, India",10.9492735,79.3684245
Annamalai Nagar,Town Panchayat,Cuddalore,"9,209","10,062","16,289","Annamalai Nagar, Cuddalore, Tamil Nadu, India",11.3899768,79.7122498
Annavasal,Town Panchayat,Pudukkottai,...,"7,657","8,906","Annavasal, Pudukkottai, Tamil Nadu, India",10.4505907,78.7241649
Annur,Town Panchayat,Coimbatore,"13,851","18,052","20,079","Annur, Coimbatore, Tamil Nadu, India",11.2329709,77.103523
Anthiyur,Town Panchayat,Erode,"24,141","20,071","21,086","Anthiyur, Erode, Tamil Nadu, India",11.7144457,77.5679387
Arachalur,Town Panchayat,Erode,...,"12,343","12,034","Arachalur, Erode, Tamil Nadu, India",11.1585516,77.6981079
Arakandanallur,Town Panchayat,Viluppuram,"4,566","4,405","5,713","Arakandanallur, Viluppuram, Tamil Nadu, India",11.9745743,79.2225205
Arakonam (Arakkonam),Municipality,Vellore,"71,928","78,686","78,395","Arakonam (Arakkonam), Vellore, Tamil Nadu, India",13.0850281,79.6647607
Aralvaimozhi,Town Panchayat,Kanniyakumari,...,"19,211","22,846","Aralvaimozhi, Kanniyakumari, Tamil Nadu, India",8.2506309,77.5218472
Arani,Town Panchayat,Thiruvallur,"11,422","12,614","12,833","Arani, Thiruvallur, Tamil Nadu, India",13.3310399,80.0835726
Arani (Arni),Municipality,Tiruvannamalai,"54,898","60,815","63,671","Arani (Arni), Tiruvannamalai, Tamil Nadu, India",12.6677023,79.2852831
Aranthangi,Municipality,Pudukkottai,"30,327","34,134","40,814","Aranthangi, Pudukkottai, Tamil Nadu, India",10.1686451,78.9927909
Arasur,Census Town,Coimbatore,...,"8,689","11,510","Arasur, Coimbatore, Tamil Nadu, India",11.0861923,77.1142844
Aravakurichi,Town Panchayat,Karur,...,"11,519","12,412","Aravakurichi, Karur, Tamil Nadu, India",10.7770404,77.9094009
Arcot,Municipality,Vellore,"45,205","49,953","55,955","Arcot, Vellore, Tamil Nadu, India",12.7864664,79.1947291
Arimalam,Town Panchayat,Pudukkottai,...,"7,819","8,948","Arimalam, Pudukkottai, Tamil Nadu, India",10.2549862,78.8840289
Ariyalur,Municipality,Ariyalur,"24,141","27,822","28,902","Ariyalur, Ariyalur, Tamil Nadu, India",11.1357708,79.0723203
Ariyur,Census Town,Vellore,...,"5,404","7,251","Ariyur, Vellore, Tamil Nadu, India",12.8750056,79.1020269
Arumanai,Town Panchayat,Kanniyakumari,...,"15,071","16,283","Arumanai, Kanniyakumari, Tamil Nadu, India",8.3675147,77.2417084
Arumbavur,Town Panchayat,Perambalur,...,"11,695","12,467","Arumbavur, Perambalur, Tamil Nadu, India",11.3796173,78.7297869
Arumuganeri,Town Panchayat,Thoothukkudi,"23,453","24,856","27,266","Arumuganeri, Thoothukkudi, Tamil Nadu, India",8.5690525,78.0938933
Aruppukkottai,Municipality,Virudhunagar,"78,976","84,029","87,722","Aruppukkottai, Virudhunagar, Tamil Nadu, India",9.5073229,78.0958971
Asaripallam,Town Panchayat,Kanniyakumari,...,"12,755","16,822","Asaripallam, Kanniyakumari, Tamil Nadu, India",8.1743227,77.3889828
Athani,Town Panchayat,Erode,...,"8,423","8,430","Athani, Erode, Tamil Nadu, India",11.5235297,77.5124292
Athanur,Town Panchayat,Namakkal,...,"9,377","9,827","Athanur, Namakkal, Tamil Nadu, India",11.4996468,78.1350881
Athipattu,Census Town,Thiruvallur,...,"8,513","11,034","Athipattu, Thiruvallur, Tamil Nadu, India",13.2547945,80.284838
Athur,Town Panchayat,Kanniyakumari,...,"11,744","11,910","Athur, Kanniyakumari, Tamil Nadu, India",8.3353514,77.25196
Attayampatti,Town Panchayat,Salem,"10,835","12,698","13,852","Attayampatti, Salem, Tamil Nadu, India",11.531861,78.0508039
Attur,Municipality,Salem,"55,667","57,519","61,793","Attur, Salem, Tamil Nadu, India",11.5995411,78.5962711
Avadi,Municipality,Thiruvallur,"183,215","229,403","345,996","Avadi, Thiruvallur, Tamil Nadu, India",13.1194809,80.1026704
Avalapalli,Census Town,Krishnagiri,...,"10,342","17,859","Avalapalli, Krishnagiri, Tamil Nadu, India",12.7408026,77.8343046
Avalpoondurai,Town Panchayat,Erode,...,"11,243","11,789","Avalpoondurai, Erode, Tamil Nadu, India",11.231261,77.7181046
Avanashi (Avinashi),Town Panchayat,Tiruppur,"17,273","22,336","28,868","Avanashi (Avinashi), Tiruppur, Tamil Nadu, India",11.2647801,77.291496
Avaniapuram,Municipality,Madurai,"35,810","53,006","89,635","Avaniapuram, Madurai, Tamil Nadu, India",9.880497,78.1134411
A. Vellalapatti (Vellalapatti),Town Panchayat,Madurai,...,"7,088","8,325","A. Vellalapatti (Vellalapatti), Madurai, Tamil Nadu, India",10.0563803,78.2857344
Ayakudi,Town Panchayat,Dindigul,...,"23,370","27,156","Ayakudi, Dindigul, Tamil Nadu, India",10.4470073,77.5532103
Ayyalur,Town Panchayat,Dindigul,...,"15,203","17,100","Ayyalur, Dindigul, Tamil Nadu, India",10.4845925,78.1566887
Ayyampalayam,Town Panchayat,Dindigul,...,"12,163","12,175","Ayyampalayam, Dindigul, Tamil Nadu, India",10.2260851,77.7474364
Ayyampettai,Census Town,Kanchipuram,"5,713","6,025","6,610","Ayyampettai, Kanchipuram, Tamil Nadu, India",12.8094574,79.7567874
Ayyampettai,Town Panchayat,Thanjavur,"13,092","14,212","16,263","Ayyampettai, Thanjavur, Tamil Nadu, India",10.8962881,79.1886395
Balakrishnapuram,Census Town,Dindigul,...,"19,568","25,627","Balakrishnapuram, Dindigul, Tamil Nadu, India",10.3584292,78.0022408
Balasamudram,Town Panchayat,Dindigul,...,"12,305","14,179","Balasamudram, Dindigul, Tamil Nadu, India",10.4192621,77.4998015
Bargur,Town Panchayat,Krishnagiri,...,"12,582","16,366","Bargur, Krishnagiri, Tamil Nadu, India",12.5425826,78.3567173
Batlagundu,Town Panchayat,Dindigul,...,"22,011","22,928","Batlagundu, Dindigul, Tamil Nadu, India",10.1636087,77.7590978
Belur,Town Panchayat,Salem,...,"9,012","8,736","Belur, Salem, Tamil Nadu, India",11.7069634,78.4131128
Bhavani,Municipality,Erode,"35,196","38,778","39,225","Bhavani, Erode, Tamil Nadu, India",11.4699779,77.3312149
Bhavanisagar,Town Panchayat,Erode,"6,005","4,329","7,710","Bhavanisagar, Erode, Tamil Nadu, India",11.4343473,77.0661172
Bhuvanagiri,Town Panchayat,Cuddalore,"17,605","19,879","21,956","Bhuvanagiri, Cuddalore, Tamil Nadu, India",11.4979403,79.6636972
Bikketti,Town Panchayat,The Nilgiris,...,"6,774","5,864","Bikketti, The Nilgiris, Tamil Nadu, India",11.27305,76.627365
B.Mallapuram,Town Panchayat,Dharmapuri,...,"11,474","12,705","B.Mallapuram, Dharmapuri, Tamil Nadu, India",12.0665912,78.2862449
B. Meenakshipuram,Town Panchayat,Theni,...,"7,227","7,846","B. Meenakshipuram, Theni, Tamil Nadu, India",9.9908938,77.3704705
Boothipuram,Town Panchayat,Theni,...,"9,626","11,022","Boothipuram, Theni, Tamil Nadu, India",10.0034807,77.4454188
Chakkarapalli,Census Town,Thanjavur,...,"6,082","6,227","Chakkarapalli, Thanjavur, Tamil Nadu, India",10.9024137,79.1981024
Chatrapatti,Census Town,Virudhunagar,...,...,"6,948","Chatrapatti, Virudhunagar, Tamil Nadu, India",9.4150001,77.594302
Chenbagaramanputhur,Census Town,Kanniyakumari,...,...,"5,028","Chenbagaramanputhur, Kanniyakumari, Tamil Nadu, India",8.2486758,77.4896729
Chengalpattu,Municipality,Kanchipuram,"54,127","62,582","62,579","Chengalpattu, Kanchipuram, Tamil Nadu, India",12.8066262,79.7607752
Chengam,Town Panchayat,Tiruvannamalai,...,"23,223","26,980","Chengam, Tiruvannamalai, Tamil Nadu, India",12.3502311,78.8767964
Chennai [Madras],Municipal Corporation,Chennai,"3,841,396","4,343,645","4,646,732","Chennai [Madras], Chennai, Tamil Nadu, India",13.0511219,80.2247578
Chennimalai,Town Panchayat,Erode,"13,453","15,547","15,500","Chennimalai, Erode, Tamil Nadu, India",11.1643156,77.6031691
Chettipalayam,Census Town,Tiruppur,"19,379","20,184","37,620","Chettipalayam, Tiruppur, Tamil Nadu, India",10.9316022,77.6295721
Chettipalayam,Town Panchayat,Coimbatore,...,"8,103","10,366","Chettipalayam, Coimbatore, Tamil Nadu, India",10.9138283,77.0374703
Chidambaram,Municipality,Cuddalore,"58,740","57,733","62,153","Chidambaram, Cuddalore, Tamil Nadu, India",11.3920706,79.703025
Chinna Anuppanadi,Census Town,Madurai,"9,231","15,676","26,158","Chinna Anuppanadi, Madurai, Tamil Nadu, India",9.9109426,78.1347212
Chinnalapatti,Town Panchayat,Dindigul,"22,866","23,351","26,285","Chinnalapatti, Dindigul, Tamil Nadu, India",10.2767592,77.9218398
Chinnamanur,Municipality,Theni,"35,397","38,360","42,305","Chinnamanur, Theni, Tamil Nadu, India",9.8415861,77.3849422
Chinnasalem,Town Panchayat,Viluppuram,...,"19,516","25,106","Chinnasalem, Viluppuram, Tamil Nadu, India",11.6284429,78.8688031
Chinnathadagam,Census Town,Coimbatore,...,"8,276","8,407","Chinnathadagam, Coimbatore, Tamil Nadu, India",11.0800254,76.9056757
Chinnavedampatti,Town Panchayat,Coimbatore,"7,754","10,981","20,122","Chinnavedampatti, Coimbatore, Tamil Nadu, India",11.0629428,76.9843304
Chithode,Town Panchayat,Erode,"6,993","7,704","8,550","Chithode, Erode, Tamil Nadu, India",11.3954841,77.6580812
Cholapuram,Town Panchayat,Thanjavur,...,"6,385","6,803","Cholapuram, Thanjavur, Tamil Nadu, India",10.6259839,79.1867089
Choozhal,Census Town,Kanniyakumari,...,...,"6,807","Choozhal, Kanniyakumari, Tamil Nadu, India",8.3118808,77.1269989
Coimbatore,Municipal Corporation,Coimbatore,"816,321","930,882","1,050,721","Coimbatore, Coimbatore, Tamil Nadu, India",11.0018115,76.9628425
Coonoor,Municipality,The Nilgiris,"48,003","50,196","45,494","Coonoor, The Nilgiris, Tamil Nadu, India",11.4053301,76.7147094
Cuddalore,Municipality,Cuddalore,"144,561","158,634","173,636","Cuddalore, Cuddalore, Tamil Nadu, India",11.7564329,79.7634644
Denkanikottai,Town Panchayat,Krishnagiri,...,"19,328","24,252","Denkanikottai, Krishnagiri, Tamil Nadu, India",12.5128321,77.761123
Desur,Town Panchayat,Tiruvannamalai,...,"5,163","4,597","Desur, Tiruvannamalai, Tamil Nadu, India",12.4393087,79.4842178
Devadanapatti,Town Panchayat,Theni,...,"13,951","19,285","Devadanapatti, Theni, Tamil Nadu, India",10.1484384,77.6564884
Devakottai,Municipality,Sivaganga,"38,265","40,497","51,865","Devakottai, Sivaganga, Tamil Nadu, India",9.9504,78.813747
Devasthanam,Census Town,Vellore,...,...,"4,963","Devasthanam, Vellore, Tamil Nadu, India",12.9136023,79.1321741
Devikapuram,Census Town,Tiruvannamalai,...,"8,712","9,800","Devikapuram, Tiruvannamalai, Tamil Nadu, India",12.6495161,79.2766239
Devipattinam,Census Town,Ramanathapuram,...,"10,166","11,599","Devipattinam, Ramanathapuram, Tamil Nadu, India",9.4749165,78.8967566
Dhali,Town Panchayat,Tiruppur,...,"6,143","5,874","Dhali, Tiruppur, Tamil Nadu, India",10.5112403,77.1882591
Dhaliyur,Town Panchayat,Coimbatore,...,"9,658","11,500","Dhaliyur, Coimbatore, Tamil Nadu, India",11.0092518,76.8484612
Dharapadavedu,Municipality,Vellore,"21,207","30,070","38,833","Dharapadavedu, Vellore, Tamil Nadu, India",12.9676504,79.138001
Dharapuram,Municipality,Tiruppur,"48,393","64,984","56,007","Dharapuram, Tiruppur, Tamil Nadu, India",10.7369082,77.5260968
Dharmapuri,Municipality,Dharmapuri,"59,318","64,496","68,619","Dharmapuri, Dharmapuri, Tamil Nadu, India",12.1347988,78.1589864
Dindigul,Municipality,Dindigul,"182,477","196,955","207,327","Dindigul, Dindigul, Tamil Nadu, India",10.365646,77.9693256
Edappadi,Municipality,Salem,"41,190","48,815","54,823","Edappadi, Salem, Tamil Nadu, India",11.5838413,77.8347612
Edayanchavadi,Census Town,Thiruvallur,...,"9,128","12,119","Edayanchavadi, Thiruvallur, Tamil Nadu, India",13.2169796,80.2850172
Elayirampannai,Census Town,Virudhunagar,"5,937","6,325","6,814","Elayirampannai, Virudhunagar, Tamil Nadu, India",9.324455,77.89372
Elumalai,Town Panchayat,Madurai,...,"14,130","15,746","Elumalai, Madurai, Tamil Nadu, India",9.8630653,77.6989606
Eral,Town Panchayat,Thoothukkudi,"9,376","9,279","9,478","Eral, Thoothukkudi, Tamil Nadu, India",8.7340584,78.0622035
Eraniel,Town Panchayat,Kanniyakumari,...,"9,305","10,375","Eraniel, Kanniyakumari, Tamil Nadu, India",8.213429,77.3076322
Eriodu (Eriyodu),Town Panchayat,Dindigul,...,"7,875","8,890","Eriodu (Eriyodu), Dindigul, Tamil Nadu, India",10.5157226,78.0567549
Erode,Municipal Corporation,Erode,"159,323","150,541","157,101","Erode, Erode, Tamil Nadu, India",11.3306483,77.7276519
Erumaipatti,Town Panchayat,Namakkal,...,"9,301","12,085","Erumaipatti, Namakkal, Tamil Nadu, India",11.15893,78.295492
Erumapalayam,Census Town,Salem,...,...,"10,220","Erumapalayam, Salem, Tamil Nadu, India",11.6387627,78.1808478
Eruvadi,Town Panchayat,Tirunelveli,"13,633","14,755","18,067","Eruvadi, Tirunelveli, Tamil Nadu, India",8.444006,77.6050293
Ethapur,Town Panchayat,Salem,...,"10,058","10,968","Ethapur, Salem, Tamil Nadu, India",11.6621824,78.4763793
Ettayapuram,Town Panchayat,Thoothukkudi,...,"12,794","12,772","Ettayapuram, Thoothukkudi, Tamil Nadu, India",8.8053035,78.1438693
Ettimadai,Town Panchayat,Coimbatore,...,"7,543","9,352","Ettimadai, Coimbatore, Tamil Nadu, India",10.8984762,76.8959745
Ganapathipuram,Town Panchayat,Kanniyakumari,...,"13,711","14,598","Ganapathipuram, Kanniyakumari, Tamil Nadu, India",8.1240866,77.3480025
Gangavalli,Town Panchayat,Salem,...,"10,457","12,015","Gangavalli, Salem, Tamil Nadu, India",11.4430018,78.5665935
Gingee,Town Panchayat,Viluppuram,...,"21,251","27,045","Gingee, Viluppuram, Tamil Nadu, India",12.2544154,79.4157756
Gobichettipalayam,Municipality,Erode,"48,364","55,158","59,523","Gobichettipalayam, Erode, Tamil Nadu, India",11.4551821,77.4350666
Gopalasamudram,Town Panchayat,Tirunelveli,...,"10,018","10,694","Gopalasamudram, Tirunelveli, Tamil Nadu, India",8.6744514,77.6382243
Gudalur,Town Panchayat,The Nilgiris,"36,593","43,096","49,535","Gudalur, The Nilgiris, Tamil Nadu, India",11.5020267,76.4990803
Gudalur,Town Panchayat,Coimbatore,...,"21,966","38,859","Gudalur, Coimbatore, Tamil Nadu, India",11.1633882,76.9339125
Gudalur,Town Panchayat,Theni,"32,603","35,531","41,915","Gudalur, Theni, Tamil Nadu, India",9.6793174,77.2436946
Gudiyatham,Municipality,Vellore,"83,232","91,452","91,558","Gudiyatham, Vellore, Tamil Nadu, India",12.9485676,78.8705336
Gummidipoondi,Town Panchayat,Thiruvallur,...,"16,196","18,891","Gummidipoondi, Thiruvallur, Tamil Nadu, India",13.4308848,80.0821379
Harur,Town Panchayat,Dharmapuri,"19,822","21,523","25,469","Harur, Dharmapuri, Tamil Nadu, India",12.0545748,78.4786186
Harveypatti,Town Panchayat,Madurai,"7,437","8,136","9,016","Harveypatti, Madurai, Tamil Nadu, India",9.877645,78.0615125
Highways,Town Panchayat,Theni,...,"7,016","4,882","Highways, Theni, Tamil Nadu, India",9.6481505,77.3609063
Hosur,Municipality,Krishnagiri,"41,739","84,394","116,821","Hosur, Krishnagiri, Tamil Nadu, India",12.7183361,77.8229481
Ilanji,Town Panchayat,Tirunelveli,...,"9,425","10,282","Ilanji, Tirunelveli, Tamil Nadu, India",8.9588478,77.2772191
Iluppur,Town Panchayat,Pudukkottai,"10,795","12,666","14,127","Iluppur, Pudukkottai, Tamil Nadu, India",10.5136995,78.6215544
Irugur,Town Panchayat,Coimbatore,...,"18,622","25,691","Irugur, Coimbatore, Tamil Nadu, India",11.0182228,77.0655208
Jalakandapuram,Town Panchayat,Salem,"12,831","14,077","16,184","Jalakandapuram, Salem, Tamil Nadu, India",11.6993908,77.8781257
Jambai,Town Panchayat,Erode,...,"15,011","16,522","Jambai, Erode, Tamil Nadu, India",11.4712817,77.6420854
Jayankondam,Municipality,Ariyalur,...,"31,268","33,945","Jayankondam, Ariyalur, Tamil Nadu, India",11.2119861,79.3648642
Jolarpet,Municipality,Vellore,"23,719","27,167","29,662","Jolarpet, Vellore, Tamil Nadu, India",12.56553,78.582427
Kadambathur,Census Town,Thiruvallur,...,...,"11,235","Kadambathur, Thiruvallur, Tamil Nadu, India",13.1000106,79.8615903
Kadambur,Town Panchayat,Thoothukkudi,...,"4,370","4,155","Kadambur, Thoothukkudi, Tamil Nadu, India",8.9948447,77.8576481
Kadathur,Town Panchayat,Dharmapuri,...,"10,184","11,382","Kadathur, Dharmapuri, Tamil Nadu, India",12.0856891,78.2911512
Kadayal,Town Panchayat,Kanniyakumari,...,"19,183","21,665","Kadayal, Kanniyakumari, Tamil Nadu, India",8.406595,77.2664595
Kadayam,Census Town,Tirunelveli,...,...,"5,430","Kadayam, Tirunelveli, Tamil Nadu, India",8.8227905,77.3740391
Kadayampatti,Town Panchayat,Salem,...,"9,565","11,390","Kadayampatti, Salem, Tamil Nadu, India",11.8726531,78.0964272
Kadayanallur,Municipality,Tirunelveli,"68,819","75,612","90,364","Kadayanallur, Tirunelveli, Tamil Nadu, India",9.0843307,77.3471138
Kailasagiri,Census Town,Vellore,...,"8,141","9,421","Kailasagiri, Vellore, Tamil Nadu, India",12.8395724,78.7427205
Kalakad (Kalakkad),Town Panchayat,Tirunelveli,...,"27,090","30,921","Kalakad (Kalakkad), Tirunelveli, Tamil Nadu, India",8.5092667,77.5706972
Kalambur,Town Panchayat,Tiruvannamalai,...,"13,291","14,304","Kalambur, Tiruvannamalai, Tamil Nadu, India",12.6325128,79.219746
Kalapatti,Town Panchayat,Coimbatore,...,"22,034","39,586","Kalapatti, Coimbatore, Tamil Nadu, India",11.0787684,77.0370419
Kalappanaickenpatti,Town Panchayat,Namakkal,...,"10,278","10,831","Kalappanaickenpatti, Namakkal, Tamil Nadu, India",11.3281702,78.2436778
Kalavai,Town Panchayat,Vellore,...,"9,763","9,773","Kalavai, Vellore, Tamil Nadu, India",12.7695119,79.4121212
Kalinjur,Town Panchayat,Vellore,"11,369","16,853","19,828","Kalinjur, Vellore, Tamil Nadu, India",12.9467597,79.1330817
Kaliyakkavilai,Town Panchayat,Kanniyakumari,...,"13,311","15,625","Kaliyakkavilai, Kanniyakumari, Tamil Nadu, India",8.30911,77.1155469
Kallangudy,Census Town,Pudukkottai,...,...,"6,396","Kallangudy, Pudukkottai, Tamil Nadu, India",10.3538032,78.9915275
Kalparapatti,Census Town,Salem,...,...,"5,046","Kalparapatti, Salem, Tamil Nadu, India",11.5783083,78.0405823
Kalugumalai,Town Panchayat,Thoothukkudi,"13,122","14,088","14,738","Kalugumalai, Thoothukkudi, Tamil Nadu, India",9.1507621,77.7018977
Kamayagoundanpatti,Town Panchayat,Theni,...,"12,211","16,134","Kamayagoundanpatti, Theni, Tamil Nadu, India",9.7381164,77.3202753
Kambainallur,Town Panchayat,Dharmapuri,...,"10,833","12,194","Kambainallur, Dharmapuri, Tamil Nadu, India",12.2066084,78.3160451
Kamuthi,Town Panchayat,Ramanathapuram,...,"13,137","14,754","Kamuthi, Ramanathapuram, Tamil Nadu, India",9.4086134,78.3684318
Kanadukathan,Town Panchayat,Sivaganga,...,"4,796","5,275","Kanadukathan, Sivaganga, Tamil Nadu, India",10.1688874,78.78294
Kancheepuram (Kanchipuram),Municipality,Kanchipuram,"144,955","153,140","164,384","Kancheepuram (Kanchipuram), Kanchipuram, Tamil Nadu, India",12.88211,79.8063903
Kandanur,Town Panchayat,Sivaganga,"6,289","6,455","7,696","Kandanur, Sivaganga, Tamil Nadu, India",10.10678,78.821222
Kangeyam,Town Panchayat,Tiruppur,"21,259","28,258","32,147","Kangeyam, Tiruppur, Tamil Nadu, India",10.9902543,77.6282496
Kangeyanallur,Census Town,Vellore,...,"12,669","15,177","Kangeyanallur, Vellore, Tamil Nadu, India",12.9519271,79.1439241
Kaniyambadi,Census Town,Vellore,...,"8,382","9,597","Kaniyambadi, Vellore, Tamil Nadu, India",12.811817,79.1340172
Kaniyur,Town Panchayat,Tiruppur,...,"5,836","6,180","Kaniyur, Tiruppur, Tamil Nadu, India",10.6056038,77.3778286
Kaniyur,Census Town,Coimbatore,...,"8,281","12,011","Kaniyur, Coimbatore, Tamil Nadu, India",11.0946073,77.1553216
Kanjikoil,Town Panchayat,Erode,...,"11,040","11,294","Kanjikoil, Erode, Tamil Nadu, India",11.3107271,77.575724
Kannamangalam,Town Panchayat,Tiruvannamalai,...,"7,316","7,399","Kannamangalam, Tiruvannamalai, Tamil Nadu, India",12.7498833,79.1518558
Kannampalayam,Town Panchayat,Coimbatore,...,"11,940","15,868","Kannampalayam, Coimbatore, Tamil Nadu, India",10.9950941,77.0984553
Kannankurichi,Town Panchayat,Salem,...,"14,994","19,765","Kannankurichi, Salem, Tamil Nadu, India",11.698129,78.1779462
Kannanoor,Census Town,Kanniyakumari,...,...,"7,747","Kannanoor, Kanniyakumari, Tamil Nadu, India",8.2897577,77.2875972
Kannapalayam,Census Town,Thiruvallur,...,"2,776","4,704","Kannapalayam, Thiruvallur, Tamil Nadu, India",13.0907932,80.1003672
Kannivadi,Town Panchayat,Tiruppur,...,"4,412","4,385","Kannivadi, Tiruppur, Tamil Nadu, India",10.810864,77.7848642
Kannivadi,Town Panchayat,Dindigul,...,"10,417","10,369","Kannivadi, Dindigul, Tamil Nadu, India",10.3793574,77.8299245
Kanniyakumari (Kanyakumari),Town Panchayat,Kanniyakumari,"17,225","19,739","22,453","Kanniyakumari (Kanyakumari), Kanniyakumari, Tamil Nadu, India",8.0914105,77.5493796
Karaipudur,Census Town,Tiruppur,...,"15,420","28,602","Karaipudur, Tiruppur, Tamil Nadu, India",11.0583021,77.295905
Karamadai,Town Panchayat,Coimbatore,"20,065","27,817","35,166","Karamadai, Coimbatore, Tamil Nadu, India",11.2393183,76.9600768
Karambakkudi,Town Panchayat,Pudukkottai,...,"12,056","14,626","Karambakkudi, Pudukkottai, Tamil Nadu, India",10.4592325,79.1399166
Kariamangalam,Town Panchayat,Dharmapuri,...,"12,035","13,511","Kariamangalam, Dharmapuri, Tamil Nadu, India",12.3078191,78.205895
Kariapatti,Town Panchayat,Virudhunagar,...,"13,981","18,191","Kariapatti, Virudhunagar, Tamil Nadu, India",9.6694505,78.1645543
Karumathampatti,Town Panchayat,Coimbatore,...,"26,477","35,062","Karumathampatti, Coimbatore, Tamil Nadu, India",11.1076538,77.1770895
Karungal,Town Panchayat,Kanniyakumari,...,"15,952","16,691","Karungal, Kanniyakumari, Tamil Nadu, India",8.2379238,77.2413556
Karuppur,Town Panchayat,Salem,...,"13,880","13,967","Karuppur, Salem, Tamil Nadu, India",11.7200276,78.092039
Karur,Municipality,Karur,"73,418","76,336","70,980","Karur, Karur, Tamil Nadu, India",10.9596041,78.0807797
Katpadi,Town Panchayat,Vellore,...,"14,912","28,797","Katpadi, Vellore, Tamil Nadu, India",13.0435051,79.2404096
Kattathurai,Census Town,Kanniyakumari,...,...,"17,271","Kattathurai, Kanniyakumari, Tamil Nadu, India",8.2812412,77.2742757
Kattimancode,Census Town,Kanniyakumari,...,...,"8,541","Kattimancode, Kanniyakumari, Tamil Nadu, India",8.1913852,77.3528437
Kattumannarkoil,Town Panchayat,Cuddalore,...,"22,426","27,294","Kattumannarkoil, Cuddalore, Tamil Nadu, India",11.260477,79.5757973
Kattupakkam,Census Town,Thiruvallur,...,...,"23,910","Kattupakkam, Thiruvallur, Tamil Nadu, India",13.0400552,80.1243027
Kattuputhur,Town Panchayat,Tiruchirappalli,...,"11,118","10,933","Kattuputhur, Tiruchirappalli, Tamil Nadu, India",10.9847646,78.2279883
Kaveripakkam,Town Panchayat,Vellore,"12,756","12,545","14,583","Kaveripakkam, Vellore, Tamil Nadu, India",12.9028915,79.4571334
Kaveripattinam,Town Panchayat,Krishnagiri,"14,719","14,378","15,006","Kaveripattinam, Krishnagiri, Tamil Nadu, India",12.4185449,78.2184935
Kayalpattinam,Municipality,Thoothukkudi,"24,428","32,664","40,588","Kayalpattinam, Thoothukkudi, Tamil Nadu, India",8.5675729,78.1207651
Keelamanjakudi,Census Town,Pudukkottai,...,...,"6,274","Keelamanjakudi, Pudukkottai, Tamil Nadu, India",9.9665215,79.1775424
Keeramangalam,Town Panchayat,Pudukkottai,...,"7,756","9,357","Keeramangalam, Pudukkottai, Tamil Nadu, India",10.2858694,79.0995884
Keeranur,Town Panchayat,Dindigul,"6,183","6,299","7,200","Keeranur, Dindigul, Tamil Nadu, India",10.5740913,78.7840059
Keeranur,Town Panchayat,Pudukkottai,"8,413","10,509","11,667","Keeranur, Pudukkottai, Tamil Nadu, India",10.5733857,78.7842652
Keeripatti,Town Panchayat,Salem,...,"9,164","10,208","Keeripatti, Salem, Tamil Nadu, India",11.5376115,78.4830263
Kelamangalam,Town Panchayat,Krishnagiri,...,"11,052","13,321","Kelamangalam, Krishnagiri, Tamil Nadu, India",12.6154643,77.8653569
Kila Ambur,Census Town,Tirunelveli,...,"5,784","6,233","Kila Ambur, Tirunelveli, Tamil Nadu, India",8.7615542,77.4034866
Killai,Town Panchayat,Cuddalore,...,"9,899","13,608","Killai, Cuddalore, Tamil Nadu, India",11.447803,79.7679974
Kilvelur,Town Panchayat,Nagapattinam,...,"7,425","8,272","Kilvelur, Nagapattinam, Tamil Nadu, India",10.689433,79.7171793
Kinathukadavu,Town Panchayat,Coimbatore,...,"8,651","8,653","Kinathukadavu, Coimbatore, Tamil Nadu, India",10.8284322,77.0254459
Kodaikanal,Municipality,Dindigul,"27,423","32,969","36,501","Kodaikanal, Dindigul, Tamil Nadu, India",10.233712,77.4919719
Kodavasal (Kudavasal),Town Panchayat,Thiruvarur,...,"13,256","14,639","Kodavasal (Kudavasal), Thiruvarur, Tamil Nadu, India",10.8552828,79.4809565
Kodivalasa,Census Town,Thiruvallur,...,"7,447","9,024","Kodivalasa, Thiruvallur, Tamil Nadu, India",13.2546739,79.4250686
Kodumudi,Town Panchayat,Erode,...,"12,664","13,225","Kodumudi, Erode, Tamil Nadu, India",11.1338134,77.8342185
Kolappalur,Town Panchayat,Erode,...,"9,803","9,607","Kolappalur, Erode, Tamil Nadu, India",11.3798266,77.4290642
Kolathur,Town Panchayat,Salem,...,"10,254","12,748","Kolathur, Salem, Tamil Nadu, India",11.8484712,77.7517554
Kollankoil,Town Panchayat,Erode,...,"8,754","9,196","Kollankoil, Erode, Tamil Nadu, India",11.1112416,77.747233
Komaralingam,Town Panchayat,Tiruppur,...,"11,769","13,642","Komaralingam, Tiruppur, Tamil Nadu, India",10.4883828,77.3513863
Kombai,Town Panchayat,Theni,...,"12,842","15,960","Kombai, Theni, Tamil Nadu, India",9.8484529,77.2969253
Konavattam,Census Town,Vellore,"6,975","9,359","11,472","Konavattam, Vellore, Tamil Nadu, India",12.9225258,79.1140864
Kondalampatti,Census Town,Salem,"11,230","16,808","20,318","Kondalampatti, Salem, Tamil Nadu, India",11.6305603,78.1248466
Kondappanaickenpatti,Census Town,Salem,...,"6,892","6,892","Kondappanaickenpatti, Salem, Tamil Nadu, India",11.7092612,78.1765422
Kondichettipatti,Census Town,Namakkal,...,"5,584","10,300","Kondichettipatti, Namakkal, Tamil Nadu, India",11.201039,78.163161
Kondur,Census Town,Cuddalore,...,...,"12,506","Kondur, Cuddalore, Tamil Nadu, India",11.8673866,79.6762834
Konerikuppam,Census Town,Kanchipuram,...,...,"11,406","Konerikuppam, Kanchipuram, Tamil Nadu, India",12.8483818,79.7105522
Konganapuram,Town Panchayat,Salem,...,"8,084","9,286","Konganapuram, Salem, Tamil Nadu, India",11.569658,77.9025476
Kooraikundu,Census Town,Virudhunagar,"11,238","19,669","22,361","Kooraikundu, Virudhunagar, Tamil Nadu, India",9.549168,77.9466699
Koradacheri,Town Panchayat,Thiruvarur,...,"5,976","6,450","Koradacheri, Thiruvarur, Tamil Nadu, India",10.7699593,79.4912099
Kotagiri,Town Panchayat,The Nilgiris,"29,557","29,192","28,207","Kotagiri, The Nilgiris, Tamil Nadu, India",11.4121586,76.70895
Kottagoundampatty,Census Town,Salem,...,...,"7,891","Kottagoundampatty, Salem, Tamil Nadu, India",11.7414608,77.9941355
Kottaiyur,Town Panchayat,Sivaganga,"8,318","10,633","14,766","Kottaiyur, Sivaganga, Tamil Nadu, India",10.117886,78.7925754
Kottakuppam,Town Panchayat,Viluppuram,...,"24,075","31,726","Kottakuppam, Viluppuram, Tamil Nadu, India",11.9676624,79.8378289
Kottaram,Town Panchayat,Kanniyakumari,...,"9,919","11,055","Kottaram, Kanniyakumari, Tamil Nadu, India",8.1182101,77.5246497
Kottur,Town Panchayat,Coimbatore,...,"25,261","26,627","Kottur, Coimbatore, Tamil Nadu, India",10.5376797,76.9808451
Kovilpatti,Municipality,Thoothukkudi,"78,834","87,450","95,057","Kovilpatti, Thoothukkudi, Tamil Nadu, India",8.7340584,78.0622035
Krishnagiri,Municipality,Krishnagiri,"60,315","64,587","71,323","Krishnagiri, Krishnagiri, Tamil Nadu, India",12.5732816,78.1927583
Krishnarayapuram,Town Panchayat,Karur,...,"10,533","10,792","Krishnarayapuram, Karur, Tamil Nadu, India",10.8358561,78.351929
Kuchanur,Town Panchayat,Theni,...,"6,055","7,024","Kuchanur, Theni, Tamil Nadu, India",9.8790635,77.3748923
Kulithalai,Municipality,Karur,"23,996","26,161","27,910","Kulithalai, Karur, Tamil Nadu, India",10.8154548,78.4881255
Kullursandai,Census Town,Virudhunagar,...,"4,653","5,383","Kullursandai, Virudhunagar, Tamil Nadu, India",9.5410816,77.9809946
Kumarapalayam (Komarapalayam),Municipality,Namakkal,"57,672","65,868","71,594","Kumarapalayam (Komarapalayam), Namakkal, Tamil Nadu, India",11.4423446,77.6984759
Kumarapuram,Town Panchayat,Kanniyakumari,...,"13,938","14,728","Kumarapuram, Kanniyakumari, Tamil Nadu, India",8.2476565,77.5739264
Kumbakonam,Municipality,Thanjavur,"139,483","139,954","140,156","Kumbakonam, Thanjavur, Tamil Nadu, India",10.9604108,79.3820861
Kuniyamuthur,Municipality,Coimbatore,"37,803","58,900","95,924","Kuniyamuthur, Coimbatore, Tamil Nadu, India",10.9560206,76.9540742
Kunnathur,Town Panchayat,Tiruppur,...,"7,032","8,774","Kunnathur, Tiruppur, Tamil Nadu, India",11.2730209,77.4109604
Kurichi,Municipality,Coimbatore,"64,796","77,853","123,667","Kurichi, Coimbatore, Tamil Nadu, India",10.9660449,76.9636929
Kurinjipadi,Town Panchayat,Cuddalore,"23,117","22,883","27,471","Kurinjipadi, Cuddalore, Tamil Nadu, India",11.5825299,79.6499885
Kurumbalur,Town Panchayat,Perambalur,...,"11,126","12,420","Kurumbalur, Perambalur, Tamil Nadu, India",11.235275,78.8010263
Kuthalam,Town Panchayat,Nagapattinam,...,"13,444","16,125","Kuthalam, Nagapattinam, Tamil Nadu, India",10.7394211,79.7131994
Kuzhithurai,Municipality,Kanniyakumari,"19,226","20,503","21,307","Kuzhithurai, Kanniyakumari, Tamil Nadu, India",8.315526,77.2068841
Labbaikudikadu,Town Panchayat,Perambalur,...,"8,741","11,891","Labbaikudikadu, Perambalur, Tamil Nadu, India",11.3924226,79.0217882
Lalgudi,Town Panchayat,Tiruchirappalli,"21,595","23,405","23,740","Lalgudi, Tiruchirappalli, Tamil Nadu, India",10.8754197,78.8153244
Lalpet,Town Panchayat,Cuddalore,...,"13,817","16,561","Lalpet, Cuddalore, Tamil Nadu, India",11.2998821,79.5552741
Madambakkam,Town Panchayat,Kanchipuram,...,"16,996","31,681","Madambakkam, Kanchipuram, Tamil Nadu, India",12.8504518,80.0538157
Madathukulam,Town Panchayat,Tiruppur,...,"20,352","20,620","Madathukulam, Tiruppur, Tamil Nadu, India",10.6243937,77.3523304
Madukkarai,Town Panchayat,Coimbatore,"18,110","26,441","30,357","Madukkarai, Coimbatore, Tamil Nadu, India",10.9006591,76.9424838
Madukkur,Town Panchayat,Thanjavur,...,"15,426","16,266","Madukkur, Thanjavur, Tamil Nadu, India",10.4804798,79.3956721
Madurai,Municipal Corporation,Madurai,"940,989","928,869","1,017,865","Madurai, Madurai, Tamil Nadu, India",9.9261153,78.1140983
Maduravoyal,Municipality,Thiruvallur,"14,881","43,609","86,195","Maduravoyal, Thiruvallur, Tamil Nadu, India",13.0601732,80.1665988
Mallankinaru,Town Panchayat,Virudhunagar,...,"11,823","12,986","Mallankinaru, Virudhunagar, Tamil Nadu, India",9.60102,78.06081
Mallasamudram,Town Panchayat,Namakkal,"13,062","17,181","18,007","Mallasamudram, Namakkal, Tamil Nadu, India",11.4903306,78.0322292
Mallur,Town Panchayat,Salem,"7,939","9,503","10,331","Mallur, Salem, Tamil Nadu, India",11.5541222,78.1348392
Malumichampatti,Census Town,Coimbatore,...,"7,176","12,936","Malumichampatti, Coimbatore, Tamil Nadu, India",10.9371931,76.9996318
Mamsapuram,Town Panchayat,Virudhunagar,...,"17,927","18,635","Mamsapuram, Virudhunagar, Tamil Nadu, India",9.4987433,77.5891074
Manachanallur,Town Panchayat,Tiruchirappalli,"18,611","21,511","25,931","Manachanallur, Tiruchirappalli, Tamil Nadu, India",10.9114112,78.699836
Manali,Municipality,Thiruvallur,"19,093","28,597","35,248","Manali, Thiruvallur, Tamil Nadu, India",13.1672275,80.2598107
Manalmedu,Town Panchayat,Nagapattinam,...,"9,275","9,017","Manalmedu, Nagapattinam, Tamil Nadu, India",10.5983658,79.8482269
Manamadurai,Town Panchayat,Sivaganga,"22,879","26,253","32,257","Manamadurai, Sivaganga, Tamil Nadu, India",9.8228529,78.4796333
Manapparai,Municipality,Tiruchirappalli,"31,837","35,770","40,510","Manapparai, Tiruchirappalli, Tamil Nadu, India",10.6082305,78.4231246
Manavalakurichi,Town Panchayat,Kanniyakumari,...,"10,412","10,969","Manavalakurichi, Kanniyakumari, Tamil Nadu, India",8.1768725,77.3007904
Mandaikadu,Town Panchayat,Kanniyakumari,...,"12,375","13,317","Mandaikadu, Kanniyakumari, Tamil Nadu, India",8.162546,77.2790757
Mandapam,Town Panchayat,Ramanathapuram,"19,935","16,343","18,427","Mandapam, Ramanathapuram, Tamil Nadu, India",9.282701,79.1526713
Mangalam,Census Town,Tiruppur,...,"10,016","17,699","Mangalam, Tiruppur, Tamil Nadu, India",11.101846,77.2709823
Mangalampet,Town Panchayat,Cuddalore,...,"7,281","9,278","Mangalampet, Cuddalore, Tamil Nadu, India",11.6338647,79.2791234
Manimutharu,Town Panchayat,Tirunelveli,...,"12,613","11,323","Manimutharu, Tirunelveli, Tamil Nadu, India",8.6549702,77.4113761
Manjakollai,Census Town,Nagapattinam,...,...,"5,040","Manjakollai, Nagapattinam, Tamil Nadu, India",10.7572364,79.8185934
Manjalumoodu,Census Town,Kanniyakumari,...,...,"6,840","Manjalumoodu, Kanniyakumari, Tamil Nadu, India",8.3759767,77.2251542
Mannarai,Census Town,Tiruppur,...,...,"17,261","Mannarai, Tiruppur, Tamil Nadu, India",11.1297212,77.3652982
Mannargudi,Municipality,Thiruvarur,"56,552","61,478","66,999","Mannargudi, Thiruvarur, Tamil Nadu, India",10.675141,79.4553714
Mappilaiurani,Census Town,Thoothukkudi,"13,327","27,361","40,035","Mappilaiurani, Thoothukkudi, Tamil Nadu, India",8.8404956,78.1508052
Marakkanam,Town Panchayat,Viluppuram,...,"19,139","22,034","Marakkanam, Viluppuram, Tamil Nadu, India",12.1959326,79.9441819
Maramangalathupatti,Census Town,Salem,"8,311","11,385","12,448","Maramangalathupatti, Salem, Tamil Nadu, India",11.6835745,78.045186
Marandahalli,Town Panchayat,Dharmapuri,...,"10,177","12,451","Marandahalli, Dharmapuri, Tamil Nadu, India",12.3879935,78.0034824
Markayankottai,Town Panchayat,Theni,...,"5,829","6,135","Markayankottai, Theni, Tamil Nadu, India",9.8530809,77.3607789
Marudur,Town Panchayat,Karur,...,"10,214","10,925","Marudur, Karur, Tamil Nadu, India",10.7760979,78.3966101
Maruthancode,Census Town,Kanniyakumari,...,...,"8,277","Maruthancode, Kanniyakumari, Tamil Nadu, India",8.3374542,77.1950476
Mathicode,Census Town,Kanniyakumari,...,...,"6,532","Mathicode, Kanniyakumari, Tamil Nadu, India",8.2282761,77.2596682
Mathigiri,Town Panchayat,Krishnagiri,...,"15,257","23,129","Mathigiri, Krishnagiri, Tamil Nadu, India",12.6928265,77.8062946
Mathur,Census Town,Thiruvallur,...,...,"27,674","Mathur, Thiruvallur, Tamil Nadu, India",13.1678641,80.2436918
Mayiladuthurai,Municipality,Nagapattinam,"76,837","84,505","85,632","Mayiladuthurai, Nagapattinam, Tamil Nadu, India",10.8271678,79.6363084
Mecheri,Town Panchayat,Salem,...,"20,455","25,676","Mecheri, Salem, Tamil Nadu, India",11.8336719,77.9424303
Melacheval,Town Panchayat,Tirunelveli,...,"7,780","8,435","Melacheval, Tirunelveli, Tamil Nadu, India",8.6718741,77.6152217
Melachokkanathapuram,Town Panchayat,Theni,...,"11,669","15,625","Melachokkanathapuram, Theni, Tamil Nadu, India",9.992605,77.357457
Melattur,Town Panchayat,Thanjavur,...,"8,103","8,131","Melattur, Thanjavur, Tamil Nadu, India",10.8590685,79.2403246
Melpattampakkam,Town Panchayat,Cuddalore,...,"6,598","6,887","Melpattampakkam, Cuddalore, Tamil Nadu, India",11.7869062,79.6313497
Melur,Municipality,Madurai,"32,878","33,881","40,017","Melur, Madurai, Tamil Nadu, India",10.0858443,78.3560235
Melvisharam,Municipality,Vellore,"26,613","36,757","44,786","Melvisharam, Vellore, Tamil Nadu, India",12.91494,79.27982
Methukummal,Census Town,Kanniyakumari,...,...,"19,417","Methukummal, Kanniyakumari, Tamil Nadu, India",8.3013286,77.1350394
Mettamalai,Census Town,Virudhunagar,...,"4,367","5,175","Mettamalai, Virudhunagar, Tamil Nadu, India",9.3981186,77.8939081
Mettupalayam,Municipality,Coimbatore,"63,479","66,595","69,213","Mettupalayam, Coimbatore, Tamil Nadu, India",11.3059363,76.9356545
Mettupalayam,Town Panchayat,Tiruchirappalli,...,"7,550","7,681","Mettupalayam, Tiruchirappalli, Tamil Nadu, India",11.1858799,78.4574192
Mettur,Municipality,Salem,"45,773","53,633","52,813","Mettur, Salem, Tamil Nadu, India",11.7928257,77.8648624
Mevalurkuppam,Census Town,Kanchipuram,...,...,"3,805","Mevalurkuppam, Kanchipuram, Tamil Nadu, India",13.0280202,80.007207
Midalam,Census Town,Kanniyakumari,...,...,"8,625","Midalam, Kanniyakumari, Tamil Nadu, India",8.2060327,77.2160949
Milavittan,Census Town,Thoothukkudi,...,"30,758","45,863","Milavittan, Thoothukkudi, Tamil Nadu, India",8.811644,78.0877263
Minjur,Town Panchayat,Thiruvallur,...,"23,742","28,337","Minjur, Thiruvallur, Tamil Nadu, India",13.2813398,80.2602441
Mohanur,Town Panchayat,Namakkal,...,"12,468","14,315","Mohanur, Namakkal, Tamil Nadu, India",11.0689318,78.1398608
Moolakaraipatti,Town Panchayat,Tirunelveli,...,"9,742","11,112","Moolakaraipatti, Tirunelveli, Tamil Nadu, India",8.5444972,77.7670638
Mudukulathur,Town Panchayat,Ramanathapuram,...,"13,126","14,789","Mudukulathur, Ramanathapuram, Tamil Nadu, India",9.3821268,78.5515713
Mukkudal,Town Panchayat,Tirunelveli,...,"13,955","14,983","Mukkudal, Tirunelveli, Tamil Nadu, India",8.8354613,77.4907465
Mulanur,Town Panchayat,Tiruppur,...,"13,827","15,223","Mulanur, Tiruppur, Tamil Nadu, India",10.794702,77.7111766
Muruganpalayam,Census Town,Tiruppur,...,"14,440","26,349","Muruganpalayam, Tiruppur, Tamil Nadu, India",11.066082,77.3332246
Musiri,Town Panchayat,Tiruchirappalli,"22,103","27,941","28,727","Musiri, Tiruchirappalli, Tamil Nadu, India",11.0488173,78.5282293
Muthupet,Town Panchayat,Thiruvarur,...,"17,383","21,722","Muthupet, Thiruvarur, Tamil Nadu, India",10.3956923,79.4944659
Muthur,Town Panchayat,Tiruppur,...,"11,880","13,212","Muthur, Tiruppur, Tamil Nadu, India",11.0436623,77.7344856
Muzhucode,Census Town,Kanniyakumari,...,...,"8,000","Muzhucode, Kanniyakumari, Tamil Nadu, India",8.3617082,77.2276181
Nadaikavu,Census Town,Kanniyakumari,...,...,"8,727","Nadaikavu, Kanniyakumari, Tamil Nadu, India",8.2910511,77.1474577
Nadukuthagai,Census Town,Thiruvallur,...,"6,283","9,251","Nadukuthagai, Thiruvallur, Tamil Nadu, India",13.1311812,80.0385928
Naduvaneri,Census Town,Salem,...,"7,463","8,485","Naduvaneri, Salem, Tamil Nadu, India",11.57528,78.0015
Nagamangalam,Census Town,Tiruchirappalli,...,"4,322","5,785","Nagamangalam, Tiruchirappalli, Tamil Nadu, India",10.7015146,78.6227989
Nagapattinam,Municipality,Nagapattinam,"86,489","93,148","102,905","Nagapattinam, Nagapattinam, Tamil Nadu, India",10.7647952,79.8430779
Nagercoil,Municipality,Kanniyakumari,"190,084","208,179","224,849","Nagercoil, Kanniyakumari, Tamil Nadu, India",8.1839904,77.4315437
Nallampatti,Town Panchayat,Erode,...,"3,656","3,874","Nallampatti, Erode, Tamil Nadu, India",11.3419107,77.5365255
Nallipalayam,Census Town,Namakkal,...,...,"5,078","Nallipalayam, Namakkal, Tamil Nadu, India",11.2385828,78.1485479
Nallur,Census Town,Tirunelveli,...,...,"7,828","Nallur, Tirunelveli, Tamil Nadu, India",8.7888122,77.6054484
Nallur $,Census Town,Thiruvallur,...,...,"19,595","Nallur $, Thiruvallur, Tamil Nadu, India",13.2773201,80.2310891
Namagiripettai,Town Panchayat,Namakkal,...,"21,446","21,250","Namagiripettai, Namakkal, Tamil Nadu, India",11.4556307,78.2681465
Namakkal,Municipality,Namakkal,"45,038","53,055","55,145","Namakkal, Namakkal, Tamil Nadu, India",11.2191692,78.16787
Nambiyur,Town Panchayat,Erode,...,"15,854","16,379","Nambiyur, Erode, Tamil Nadu, India",11.3614839,77.3501984
Nangavalli,Town Panchayat,Salem,...,"9,676","10,809","Nangavalli, Salem, Tamil Nadu, India",11.7609466,77.8916025
Nangavaram,Town Panchayat,Karur,...,"16,408","17,629","Nangavaram, Karur, Tamil Nadu, India",10.7781073,78.522454
Nanguneri,Town Panchayat,Tirunelveli,...,"6,758","6,640","Nanguneri, Tirunelveli, Tamil Nadu, India",8.4892568,77.6596709
Nanjikottai,Census Town,Thanjavur,...,"21,935","32,689","Nanjikottai, Thanjavur, Tamil Nadu, India",10.7695486,79.1406916
Nannilam,Town Panchayat,Thiruvarur,...,"11,056","12,618","Nannilam, Thiruvarur, Tamil Nadu, India",10.9072394,79.6127723
Naranammalpuram,Town Panchayat,Tirunelveli,"14,884","16,318","17,094","Naranammalpuram, Tirunelveli, Tamil Nadu, India",8.7592218,77.7392846
Naranapuram,Census Town,Virudhunagar,...,"9,331","11,665","Naranapuram, Virudhunagar, Tamil Nadu, India",9.4519134,77.8411303
Narasingapuram,Municipality,Salem,...,"18,690","23,084","Narasingapuram, Salem, Tamil Nadu, India",11.6056296,78.5744935
Nasiyanur,Town Panchayat,Erode,...,"9,905","10,970","Nasiyanur, Erode, Tamil Nadu, India",11.3389391,77.6391662
Natchiarkoil,Census Town,Thanjavur,...,"7,128","7,505","Natchiarkoil, Thanjavur, Tamil Nadu, India",10.9175056,79.4456202
Natham,Town Panchayat,Dindigul,...,"22,545","23,660","Natham, Dindigul, Tamil Nadu, India",10.2689998,78.2507119
Nathampannai,Census Town,Pudukkottai,...,"6,426","8,915","Nathampannai, Pudukkottai, Tamil Nadu, India",10.4087671,78.7918432
Natrampalli,Town Panchayat,Vellore,...,"9,134","10,390","Natrampalli, Vellore, Tamil Nadu, India",12.5834492,78.5117434
Nattalam,Census Town,Kanniyakumari,...,...,"7,674","Nattalam, Kanniyakumari, Tamil Nadu, India",8.2704381,77.238919
Nattapettai,Census Town,Kanchipuram,"9,923","10,111","19,883","Nattapettai, Kanchipuram, Tamil Nadu, India",12.8179099,79.7304781
Nattarasankottai,Town Panchayat,Sivaganga,"5,693","6,586","5,860","Nattarasankottai, Sivaganga, Tamil Nadu, India",9.8691953,78.5545152
Navalpattu,Census Town,Tiruchirappalli,"13,826","15,394","16,788","Navalpattu, Tiruchirappalli, Tamil Nadu, India",10.7504375,78.7762002
Needamangalam,Town Panchayat,Thiruvarur,...,"8,730","9,336","Needamangalam, Thiruvarur, Tamil Nadu, India",10.7249597,79.4700426
Neelambur,Census Town,Coimbatore,...,...,"8,382","Neelambur, Coimbatore, Tamil Nadu, India",11.0644299,77.0861309
Nellikuppam,Municipality,Cuddalore,"42,783","44,222","46,678","Nellikuppam, Cuddalore, Tamil Nadu, India",11.7737083,79.6699222
Nemilicheri,Census Town,Thiruvallur,...,"4,831","5,743","Nemilicheri, Thiruvallur, Tamil Nadu, India",13.1256971,80.0506578
Nerkuppai,Town Panchayat,Sivaganga,...,"5,689","7,165","Nerkuppai, Sivaganga, Tamil Nadu, India",10.2272825,78.5329705
Nerunjipettai,Town Panchayat,Erode,...,"6,925","6,791","Nerunjipettai, Erode, Tamil Nadu, India",11.6542644,77.7584731
Neyveli,Township,Cuddalore,"118,080","127,552","105,731","Neyveli, Cuddalore, Tamil Nadu, India",11.535987,79.4824392
Neyyoor,Town Panchayat,Kanniyakumari,...,"12,288","12,917","Neyyoor, Kanniyakumari, Tamil Nadu, India",8.1948319,77.2817317
Nilakkottai,Town Panchayat,Dindigul,"14,770","19,615","22,197","Nilakkottai, Dindigul, Tamil Nadu, India",10.1648333,77.85285
Nolambur,Census Town,Thiruvallur,...,...,"21,973","Nolambur, Thiruvallur, Tamil Nadu, India",13.0747182,80.1682206
Odaipatti,Town Panchayat,Theni,...,"13,183","13,892","Odaipatti, Theni, Tamil Nadu, India",9.8329178,77.4419071
Oddanchatram,Town Panchayat,Dindigul,...,"24,132","30,064","Oddanchatram, Dindigul, Tamil Nadu, India",10.4851135,77.7460054
Odugathur,Town Panchayat,Vellore,...,"8,148","8,998","Odugathur, Vellore, Tamil Nadu, India",12.7782677,78.8769331
Olagadam,Town Panchayat,Erode,...,"9,370","9,958","Olagadam, Erode, Tamil Nadu, India",11.5562066,77.6484523
Omalur,Town Panchayat,Salem,"11,884","13,291","16,279","Omalur, Salem, Tamil Nadu, India",11.7428538,78.0472667
Orikkai,Census Town,Kanchipuram,...,...,"12,638","Orikkai, Kanchipuram, Tamil Nadu, India",12.7980422,79.7141904
Othakadai,Census Town,Madurai,"8,912","12,185","15,152","Othakadai, Madurai, Tamil Nadu, India",9.9604223,78.1891222
Othakalmandapam,Town Panchayat,Coimbatore,...,"10,320","12,207","Othakalmandapam, Coimbatore, Tamil Nadu, India",10.8832086,76.9937765
O' Valley,Town Panchayat,The Nilgiris,"22,713","24,793","21,943","O' Valley, The Nilgiris, Tamil Nadu, India",11.441743,76.7151792
Pacode,Town Panchayat,Kanniyakumari,...,"22,781","24,050","Pacode, Kanniyakumari, Tamil Nadu, India",8.3232699,77.2218065
Padaiveedu,Town Panchayat,Namakkal,...,"10,066","10,451","Padaiveedu, Namakkal, Tamil Nadu, India",11.4557148,77.8237581
Padappai,Census Town,Kanchipuram,...,"8,285","14,063","Padappai, Kanchipuram, Tamil Nadu, India",12.8876927,80.0220457
Padianallur,Census Town,Thiruvallur,"18,004","20,938","23,819","Padianallur, Thiruvallur, Tamil Nadu, India",13.2032865,80.1730356
Padmanabhapuram,Municipality,Kanniyakumari,"19,269","20,075","21,342","Padmanabhapuram, Kanniyakumari, Tamil Nadu, India",8.2515242,77.3245939
Painkulam,Census Town,Kanniyakumari,...,"21,337","23,630","Painkulam, Kanniyakumari, Tamil Nadu, India",8.2693852,77.1721222
Paiyur,Census Town,Tiruvannamalai,...,"5,818","7,555","Paiyur, Tiruvannamalai, Tamil Nadu, India",12.6712822,79.3019691
Palakkodu,Town Panchayat,Dharmapuri,"15,853","18,667","20,959","Palakkodu, Dharmapuri, Tamil Nadu, India",12.2970222,78.0716779
Palamedu,Town Panchayat,Madurai,...,"8,183","10,493","Palamedu, Madurai, Tamil Nadu, India",10.1056837,78.1125354
Palangarai,Census Town,Tiruppur,...,"9,821","17,248","Palangarai, Tiruppur, Tamil Nadu, India",11.2743244,77.3325761
Palani,Municipality,Dindigul,"68,907","67,231","70,467","Palani, Dindigul, Tamil Nadu, India",10.4511094,77.5154495
Palayam,Town Panchayat,Dindigul,...,"13,300","15,336","Palayam, Dindigul, Tamil Nadu, India",10.7188161,78.1292088
Palladam,Municipality,Tiruppur,"22,406","30,016","42,225","Palladam, Tiruppur, Tamil Nadu, India",10.9708115,77.2817262
Pallapalayam,Town Panchayat,Coimbatore,...,"9,898","11,910","Pallapalayam, Coimbatore, Tamil Nadu, India",10.9995904,77.0869218
Pallapatti,Town Panchayat,Karur,...,"19,039","30,624","Pallapatti, Karur, Tamil Nadu, India",10.7222162,77.8904533
Pallapatti,Census Town,Virudhunagar,"18,991","24,326","27,925","Pallapatti, Virudhunagar, Tamil Nadu, India",9.5887219,78.3250201
Pallathur,Town Panchayat,Sivaganga,...,"7,982","9,580","Pallathur, Sivaganga, Tamil Nadu, India",10.1429786,78.7991211
Pallavaram,Municipality with Outgrowth,Kanchipuram,"111,866","144,623","233,984","Pallavaram, Kanchipuram, Tamil Nadu, India",12.7896713,79.7087851
Pallikonda,Town Panchayat,Vellore,"18,672","20,771","23,067","Pallikonda, Vellore, Tamil Nadu, India",12.9042201,78.9404409
Pallipalayam,Municipality,Namakkal,"36,657","35,635","40,140","Pallipalayam, Namakkal, Tamil Nadu, India",11.3652431,77.7482633
Pallipalayam Agraharam,Census Town,Namakkal,...,"9,997","16,479","Pallipalayam Agraharam, Namakkal, Tamil Nadu, India",11.3764,77.74831
Pallipattu,Town Panchayat,Thiruvallur,...,"8,654","8,721","Pallipattu, Thiruvallur, Tamil Nadu, India",13.3370832,79.4408239
Paloor,Census Town,Kanniyakumari,...,...,"6,818","Paloor, Kanniyakumari, Tamil Nadu, India",8.2474103,77.2281128
Panagudi,Town Panchayat,Tirunelveli,...,"25,501","29,895","Panagudi, Tirunelveli, Tamil Nadu, India",8.323179,77.5787258
Panapakkam,Town Panchayat,Vellore,...,"10,151","11,536","Panapakkam, Vellore, Tamil Nadu, India",12.92373,79.5692632
Pandamangalam,Town Panchayat,Namakkal,...,"5,952","7,259","Pandamangalam, Namakkal, Tamil Nadu, India",11.1015572,77.9656286
Pannaikadu,Town Panchayat,Dindigul,...,"9,473","8,731","Pannaikadu, Dindigul, Tamil Nadu, India",10.2817063,77.6304858
Pannaipuram,Town Panchayat,Theni,...,"8,347","9,323","Pannaipuram, Theni, Tamil Nadu, India",9.8652065,77.28418
Panruti,Municipality,Cuddalore,"51,394","55,346","60,323","Panruti, Cuddalore, Tamil Nadu, India",11.7722823,79.5518978
Papanasam,Town Panchayat,Thanjavur,"14,997","16,404","17,548","Papanasam, Thanjavur, Tamil Nadu, India",10.8604181,79.235816
Papparapatti,Town Panchayat,Dharmapuri,...,"11,276","12,174","Papparapatti, Dharmapuri, Tamil Nadu, India",12.1711013,78.042678
Pappireddipatti,Town Panchayat,Dharmapuri,...,"8,583","9,369","Pappireddipatti, Dharmapuri, Tamil Nadu, India",11.9138178,78.3671093
Paramakudi,Municipality,Ramanathapuram,"72,321","84,321","95,579","Paramakudi, Ramanathapuram, Tamil Nadu, India",9.4867151,78.6722718
Paramathi,Town Panchayat,Namakkal,...,"11,124","11,986","Paramathi, Namakkal, Tamil Nadu, India",11.1548155,78.0212943
Parangipettai,Town Panchayat,Cuddalore,"23,550","20,912","25,541","Parangipettai, Cuddalore, Tamil Nadu, India",11.4905673,79.7568983
Paravai,Town Panchayat,Madurai,"12,732","16,248","20,042","Paravai, Madurai, Tamil Nadu, India",9.9634343,78.0540237
Pasur,Town Panchayat,Erode,...,"3,870","3,670","Pasur, Erode, Tamil Nadu, India",11.2396105,77.8537988
Pattanam,Census Town,Coimbatore,...,"6,477","9,196","Pattanam, Coimbatore, Tamil Nadu, India",10.9804139,77.0551872
Pattiveeranpatti,Town Panchayat,Dindigul,...,"7,772","8,602","Pattiveeranpatti, Dindigul, Tamil Nadu, India",10.2084554,77.761042
Pattukkottai,Municipality,Thanjavur,"58,062","65,533","73,135","Pattukkottai, Thanjavur, Tamil Nadu, India",10.4162901,79.3205603
Pavali,Census Town,Virudhunagar,...,...,"7,622","Pavali, Virudhunagar, Tamil Nadu, India",9.6026054,77.9211313
Pennadam,Town Panchayat,Cuddalore,...,"18,166","19,494","Pennadam, Cuddalore, Tamil Nadu, India",11.4028109,79.2416716
Pennagaram,Town Panchayat,Dharmapuri,...,"15,306","17,480","Pennagaram, Dharmapuri, Tamil Nadu, India",12.1125277,77.8677247
Pennathur,Town Panchayat,Vellore,...,"8,151","9,425","Pennathur, Vellore, Tamil Nadu, India",12.8380301,79.1276944
Peraiyur,Town Panchayat,Madurai,"7,830","9,614","10,394","Peraiyur, Madurai, Tamil Nadu, India",9.7481573,77.738655
Peralam,Town Panchayat,Thiruvarur,...,"5,842","6,149","Peralam, Thiruvarur, Tamil Nadu, India",10.9582262,79.6570624
Perambakkam,Census Town,Thiruvallur,...,"5,398","6,462","Perambakkam, Thiruvallur, Tamil Nadu, India",13.0377208,79.8133227
Perambalur,Municipality,Perambalur,"26,451","37,631","49,648","Perambalur, Perambalur, Tamil Nadu, India",11.2356695,78.8688353
Peranamallur,Town Panchayat,Tiruvannamalai,...,"5,557","5,801","Peranamallur, Tiruvannamalai, Tamil Nadu, India",12.56506,79.435111
Peravurani,Town Panchayat,Thanjavur,...,"21,045","22,084","Peravurani, Thanjavur, Tamil Nadu, India",10.2857334,79.2006507
Periyakulam,Municipality,Theni,"46,744","42,012","42,976","Periyakulam, Theni, Tamil Nadu, India",10.1198663,77.5467069
Periyamanali,Census Town,Namakkal,...,...,"6,878","Periyamanali, Namakkal, Tamil Nadu, India",11.3746176,78.0725779
Periya Negamam,Town Panchayat,Coimbatore,...,"7,683","7,098","Periya Negamam, Coimbatore, Tamil Nadu, India",10.7470722,77.1008245
Periyapatti,Census Town,Namakkal,...,"5,772","15,690","Periyapatti, Namakkal, Tamil Nadu, India",11.2159662,78.1470787
Periyasemur,Municipality,Erode,...,"32,024","55,282","Periyasemur, Erode, Tamil Nadu, India",11.366551,77.6978494
Pernampattu,Municipality,Vellore,"36,195","41,499","51,271","Pernampattu, Vellore, Tamil Nadu, India",12.9366728,78.7187469
Perumagalur,Town Panchayat,Thanjavur,...,"5,405","5,604","Perumagalur, Thanjavur, Tamil Nadu, India",10.1859213,79.1954237
Perumanallur,Census Town,Tiruppur,...,"4,994","7,356","Perumanallur, Tiruppur, Tamil Nadu, India",11.2060748,77.3584622
Perundurai,Town Panchayat,Erode,...,"16,943","24,930","Perundurai, Erode, Tamil Nadu, India",11.2539029,77.6288316
Perur,Town Panchayat,Coimbatore,"6,823","7,965","8,004","Perur, Coimbatore, Tamil Nadu, India",10.976406,76.9141784
Perur Chettipalayam,Census Town,Coimbatore,...,"12,932","17,809","Perur Chettipalayam, Coimbatore, Tamil Nadu, India",10.9732558,76.902599
Peruvilai,Census Town,Kanniyakumari,...,...,"6,090","Peruvilai, Kanniyakumari, Tamil Nadu, India",8.1818202,77.3933387
Pethampalayam,Town Panchayat,Erode,...,"7,120","7,152","Pethampalayam, Erode, Tamil Nadu, India",11.3439832,77.5550545
Pichandarkovil,Census Town,Tiruchirappalli,...,"10,164","17,257","Pichandarkovil, Tiruchirappalli, Tamil Nadu, India",10.8775915,78.7080495
Pillanallur,Town Panchayat,Namakkal,"8,405","9,161","11,181","Pillanallur, Namakkal, Tamil Nadu, India",11.4302143,78.1318167
P. Mettupalayam,Town Panchayat,Erode,...,"9,115","9,109","P. Mettupalayam, Erode, Tamil Nadu, India",11.2536017,77.6642827
Pollachi,Municipality,Coimbatore,"86,897","88,302","90,180","Pollachi, Coimbatore, Tamil Nadu, India",10.6588234,77.00873
Polur,Town Panchayat,Tiruvannamalai,"23,046","25,505","28,123","Polur, Tiruvannamalai, Tamil Nadu, India",12.5937689,79.1385342
Ponmanai,Town Panchayat,Kanniyakumari,...,"13,480","15,554","Ponmanai, Kanniyakumari, Tamil Nadu, India",8.3555192,77.3284936
Ponnamaravathi,Town Panchayat,Pudukkottai,...,"11,776","12,676","Ponnamaravathi, Pudukkottai, Tamil Nadu, India",10.2748695,78.5655361
Ponnampatti,Town Panchayat,Tiruchirappalli,...,"10,660","12,167","Ponnampatti, Tiruchirappalli, Tamil Nadu, India",10.4628294,78.2796585
Ponneri,Town Panchayat,Thiruvallur,"22,375","24,309","31,025","Ponneri, Thiruvallur, Tamil Nadu, India",13.3710903,80.2428419
Poolambadi,Town Panchayat,Perambalur,...,"10,027","10,737","Poolambadi, Perambalur, Tamil Nadu, India",11.4121053,78.7144339
Poolampatti,Town Panchayat,Salem,...,"8,999","9,477","Poolampatti, Salem, Tamil Nadu, India",11.6564791,77.7652169
Poolankinar,Census Town,Tiruppur,...,"4,779","4,849","Poolankinar, Tiruppur, Tamil Nadu, India",10.5997337,77.1857875
Pooluvapatti,Town Panchayat,Coimbatore,...,"11,964","12,853","Pooluvapatti, Coimbatore, Tamil Nadu, India",10.9596773,76.8149681
Poonamallee,Municipality with Outgrowth,Thiruvallur,"28,827","42,604","60,607","Poonamallee, Thiruvallur, Tamil Nadu, India",13.0492031,80.1010677
Poravacheri,Census Town,Nagapattinam,...,"4,115","4,422","Poravacheri, Nagapattinam, Tamil Nadu, India",10.7572356,79.8080753
Porur,Town Panchayat,Thiruvallur,"19,507","28,924","46,690","Porur, Thiruvallur, Tamil Nadu, India",13.0320131,80.158304
Pothanur,Town Panchayat,Namakkal,...,"13,728","18,455","Pothanur, Namakkal, Tamil Nadu, India",11.1091359,77.9877841
Pudukkottai,Census Town,Pudukkottai,"11,091","17,607","26,116","Pudukkottai, Pudukkottai, Tamil Nadu, India",10.3826515,78.8191259
Pudukkottai,Municipality,Pudukkottai,"99,058","109,217","117,630","Pudukkottai, Pudukkottai, Tamil Nadu, India",10.3826515,78.8191259
Pudupalayam,Town Panchayat,Tiruvannamalai,...,"10,005","11,382","Pudupalayam, Tiruvannamalai, Tamil Nadu, India",12.2897279,78.8835393
Pudupatti,Town Panchayat,Theni,...,"10,015","11,511","Pudupatti, Theni, Tamil Nadu, India",10.1288834,77.5740165
Pudupattinam,Census Town,Thanjavur,...,"7,261","10,210","Pudupattinam, Thanjavur, Tamil Nadu, India",10.7746935,79.1498599
Puduvayal,Town Panchayat,Sivaganga,"7,381","9,255","11,284","Puduvayal, Sivaganga, Tamil Nadu, India",10.1063959,78.847434
Puliyur,Town Panchayat,Karur,...,"11,491","12,720","Puliyur, Karur, Tamil Nadu, India",10.9390749,78.1449307
Pullampadi (Pullambadi),Town Panchayat,Tiruchirappalli,...,"11,215","10,241","Pullampadi (Pullambadi), Tiruchirappalli, Tamil Nadu, India",10.9396803,78.9171105
Puthagaram,Census Town,Thiruvallur,...,"6,451","10,263","Puthagaram, Thiruvallur, Tamil Nadu, India",13.1346231,80.1978478
Puthalam,Town Panchayat,Kanniyakumari,...,"11,835","13,073","Puthalam, Kanniyakumari, Tamil Nadu, India",8.1066173,77.4669227
Putheri,Census Town,Kanniyakumari,...,...,"5,576","Putheri, Kanniyakumari, Tamil Nadu, India",8.2138744,77.4327541
Puzhal,Town Panchayat,Thiruvallur,"15,868","20,639","31,665","Puzhal, Thiruvallur, Tamil Nadu, India",13.1636492,80.2038067
Rajapalayam,Municipality,Virudhunagar,"114,202","122,307","130,442","Rajapalayam, Virudhunagar, Tamil Nadu, India",9.4031584,77.5182644
Ramalingapuram,Census Town,Virudhunagar,...,"3,912","4,505","Ramalingapuram, Virudhunagar, Tamil Nadu, India",9.3812464,77.9331786
Ramanathapuram,Municipality,Ramanathapuram,"52,879","62,050","61,440","Ramanathapuram, Ramanathapuram, Tamil Nadu, India",9.3588632,78.8375276
Ramapuram,Census Town,Thiruvallur,...,"27,895","52,295","Ramapuram, Thiruvallur, Tamil Nadu, India",13.0298609,80.1780333
Rameswaram,Municipality,Ramanathapuram,"32,721","37,968","44,856","Rameswaram, Ramanathapuram, Tamil Nadu, India",9.2844657,79.3125553
Rasipuram,Municipality,Namakkal,"39,386","46,330","50,244","Rasipuram, Namakkal, Tamil Nadu, India",11.4537338,78.1784576
Rayagiri,Town Panchayat,Tirunelveli,...,"10,855","11,223","Rayagiri, Tirunelveli, Tamil Nadu, India",9.303713,77.4442452
R. Pudupatti,Town Panchayat,Namakkal,...,"11,915","7,478","R. Pudupatti, Namakkal, Tamil Nadu, India",11.1527839,78.2121084
R. S. Mangalam,Town Panchayat,Ramanathapuram,...,"11,043","14,565","R. S. Mangalam, Ramanathapuram, Tamil Nadu, India",9.6370191,78.8468952
Sakkarakottai,Census Town,Ramanathapuram,...,...,"15,355","Sakkarakottai, Ramanathapuram, Tamil Nadu, India",9.3432474,78.8406139
Salem,Municipal Corporation,Salem,"366,712","696,760","829,267","Salem, Salem, Tamil Nadu, India",11.6551982,78.1581771
Samalapuram,Town Panchayat,Tiruppur,...,"14,705","20,691","Samalapuram, Tiruppur, Tamil Nadu, India",11.0740895,77.1927057
Samathur,Town Panchayat,Coimbatore,...,"5,812","5,762","Samathur, Coimbatore, Tamil Nadu, India",10.6048766,77.014998
Samayanallur,Census Town,Madurai,...,"8,622","9,227","Samayanallur, Madurai, Tamil Nadu, India",9.9795005,78.0356611
Sankarankoil (Sankarankovil),Municipality,Tirunelveli,"48,846","53,606","57,277","Sankarankoil (Sankarankovil), Tirunelveli, Tamil Nadu, India",9.3087855,77.5485639
Sankaraperi,Census Town,Thoothukkudi,...,"11,551","19,844","Sankaraperi, Thoothukkudi, Tamil Nadu, India",8.8331568,78.1166475
Sankarapuram,Town Panchayat,Viluppuram,"5,456","12,263","15,664","Sankarapuram, Viluppuram, Tamil Nadu, India",11.8326789,79.4318219
Sankari (Sankagiri),Town Panchayat,Salem,...,"27,454","29,467","Sankari (Sankagiri), Salem, Tamil Nadu, India",11.4724083,77.8686343
Saravanampatti,Town Panchayat,Coimbatore,"10,753","17,737","32,920","Saravanampatti, Coimbatore, Tamil Nadu, India",11.0747296,77.0027116
Sathankulam,Town Panchayat,Thoothukkudi,...,"14,206","14,193","Sathankulam, Thoothukkudi, Tamil Nadu, India",8.4430918,77.9096381
Sathyamangalam,Municipality,Erode,"32,417","33,722","37,816","Sathyamangalam, Erode, Tamil Nadu, India",11.5523741,77.2653758
Sattur,Municipality,Virudhunagar,"29,226","31,443","29,398","Sattur, Virudhunagar, Tamil Nadu, India",9.322676,77.9418465
Sayalgudi,Town Panchayat,Ramanathapuram,...,"12,052","14,801","Sayalgudi, Ramanathapuram, Tamil Nadu, India",9.169397,78.4454258
Seerapalli,Town Panchayat,Namakkal,...,"11,753","12,403","Seerapalli, Namakkal, Tamil Nadu, India",11.2061033,77.9557372
Seithur,Town Panchayat,Virudhunagar,...,"18,012","20,228","Seithur, Virudhunagar, Tamil Nadu, India",9.4055407,77.4796092
Sembedu,Census Town,Vellore,...,"11,305","12,548","Sembedu, Vellore, Tamil Nadu, India",12.884317,79.0779868
Semmipalayam,Census Town,Tiruppur,...,"6,184","8,429","Semmipalayam, Tiruppur, Tamil Nadu, India",11.00908,77.236744
Senneerkuppam,Census Town,Thiruvallur,...,...,"16,237","Senneerkuppam, Thiruvallur, Tamil Nadu, India",13.0501739,80.1193176
Sentharapatti,Town Panchayat,Salem,...,"13,896","14,308","Sentharapatti, Salem, Tamil Nadu, India",11.4376749,78.5214133
Senur,Census Town,Vellore,...,"7,569","9,078","Senur, Vellore, Tamil Nadu, India",12.9418693,79.0526952
Sethiathoppu,Town Panchayat,Cuddalore,...,"7,963","8,824","Sethiathoppu, Cuddalore, Tamil Nadu, India",11.4362875,79.5423084
Sevilimedu,Town Panchayat,Kanchipuram,"13,433","16,125","23,454","Sevilimedu, Kanchipuram, Tamil Nadu, India",12.8089582,79.6681815
Sevur,Census Town,Vellore,"5,206","8,663","11,356","Sevur, Vellore, Tamil Nadu, India",12.9718001,79.1901017
Sevur,Census Town,Tiruvannamalai,...,"9,298","10,299","Sevur, Tiruvannamalai, Tamil Nadu, India",12.6864597,79.2686319
Shenbakkam,Town Panchayat,Vellore,...,"13,390","17,109","Shenbakkam, Vellore, Tamil Nadu, India",12.9270423,79.1170105
Shenkottai (Sengottai),Municipality,Tirunelveli,"25,820","26,838","26,823","Shenkottai (Sengottai), Tirunelveli, Tamil Nadu, India",8.9717717,77.2474154
Sholavandan,Town Panchayat,Madurai,...,"21,638","22,578","Sholavandan, Madurai, Tamil Nadu, India",10.022662,77.9653911
Silaiman,Census Town,Madurai,...,"5,250","6,436","Silaiman, Madurai, Tamil Nadu, India",9.8739731,78.1898831
Singaperumalkoil,Census Town,Kanchipuram,...,"8,083","13,566","Singaperumalkoil, Kanchipuram, Tamil Nadu, India",12.9107497,79.9320965
Sirugamani,Town Panchayat,Tiruchirappalli,...,"9,994","10,743","Sirugamani, Tiruchirappalli, Tamil Nadu, India",10.894713,78.5310459
Sirumugai,Town Panchayat,Coimbatore,...,"19,383","18,223","Sirumugai, Coimbatore, Tamil Nadu, India",11.318228,77.00665
Sithayankottai,Town Panchayat,Dindigul,...,"12,099","13,634","Sithayankottai, Dindigul, Tamil Nadu, India",10.269549,77.8316528
Sithurajapuram,Census Town,Virudhunagar,"9,358","13,273","16,860","Sithurajapuram, Virudhunagar, Tamil Nadu, India",9.4233734,77.7826079
Sivaganga,Municipality,Sivaganga,"33,190","40,220","40,403","Sivaganga, Sivaganga, Tamil Nadu, India",9.8486881,78.4870461
Sivagiri,Town Panchayat,Erode,...,"16,255","17,979","Sivagiri, Erode, Tamil Nadu, India",11.119955,77.788266
Sivagiri,Town Panchayat,Tirunelveli,...,"20,380","23,040","Sivagiri, Tirunelveli, Tamil Nadu, India",9.3471299,77.4332285
Sivagiripatti,Census Town,Dindigul,...,...,"17,306","Sivagiripatti, Dindigul, Tamil Nadu, India",10.4558517,77.5316082
Sivakasi,Municipality,Virudhunagar,"65,593","72,168","71,040","Sivakasi, Virudhunagar, Tamil Nadu, India",9.4627995,77.7891013
Somayampalayam,Census Town,Coimbatore,...,"8,963","14,787","Somayampalayam, Coimbatore, Tamil Nadu, India",11.0462449,76.9050297
Srimushnam,Town Panchayat,Cuddalore,...,"11,992","13,971","Srimushnam, Cuddalore, Tamil Nadu, India",11.401355,79.4045922
Sriperumbudur,Town Panchayat,Kanchipuram,"13,091","16,156","24,864","Sriperumbudur, Kanchipuram, Tamil Nadu, India",12.9666144,79.9458077
Sriramapuram,Town Panchayat,Dindigul,...,"8,933","10,653","Sriramapuram, Dindigul, Tamil Nadu, India",10.4335612,77.8083314
Srivilliputhur,Municipality,Virudhunagar,"68,644","73,183","75,396","Srivilliputhur, Virudhunagar, Tamil Nadu, India",9.5601364,77.6091287
Suchindrum (Suchindram),Town Panchayat,Kanniyakumari,...,"12,052","13,193","Suchindrum (Suchindram), Kanniyakumari, Tamil Nadu, India",8.1530435,77.4665764
Sulur,Town Panchayat,Coimbatore,"19,715","24,152","27,909","Sulur, Coimbatore, Tamil Nadu, India",10.9890537,77.1014971
Sundarapandianpattinam,Census Town,Ramanathapuram,...,...,"4,007","Sundarapandianpattinam, Ramanathapuram, Tamil Nadu, India",9.8416644,79.0981936
Sundarapandiapuram,Town Panchayat,Tirunelveli,...,"7,711","8,987","Sundarapandiapuram, Tirunelveli, Tamil Nadu, India",8.9632748,77.3804556
Surampatti,Municipality,Erode,"24,209","31,948","41,782","Surampatti, Erode, Tamil Nadu, India",11.3278082,77.7107402
Surandai,Town Panchayat,Tirunelveli,...,"28,146","35,272","Surandai, Tirunelveli, Tamil Nadu, India",8.9716,77.4212679
Suriyampalayam,Town Panchayat,Erode,...,"21,923","28,585","Suriyampalayam, Erode, Tamil Nadu, India",11.3999999,77.6854438
Swamimalai,Town Panchayat,Thanjavur,...,"6,982","7,289","Swamimalai, Thanjavur, Tamil Nadu, India",10.956686,79.3260401
Tambaram,Municipality,Kanchipuram,"107,187","137,933","174,787","Tambaram, Kanchipuram, Tamil Nadu, India",12.9257778,80.010144
Tenkasi,Municipality,Tirunelveli,"55,189","63,432","70,545","Tenkasi, Tirunelveli, Tamil Nadu, India",8.7452326,77.6803974
Thadikarankonam,Census Town,Kanniyakumari,...,...,"6,241","Thadikarankonam, Kanniyakumari, Tamil Nadu, India",8.3296885,77.4147738
Thadikombu,Town Panchayat,Dindigul,...,"16,081","18,838","Thadikombu, Dindigul, Tamil Nadu, India",10.4370118,77.955043
Thakkolam,Town Panchayat,Vellore,...,"9,908","13,983","Thakkolam, Vellore, Tamil Nadu, India",13.02805,79.733461
Thalainayar,Town Panchayat,Nagapattinam,...,"11,635","12,798","Thalainayar, Nagapattinam, Tamil Nadu, India",10.5632956,79.7732842
Thalakudi,Census Town,Tiruchirappalli,...,...,"5,740","Thalakudi, Tiruchirappalli, Tamil Nadu, India",10.87436,78.7204
Thammampatti,Town Panchayat,Salem,...,"20,751","21,503","Thammampatti, Salem, Tamil Nadu, India",11.4422457,78.4858502
Thanakkankulam,Census Town,Madurai,...,"9,748","14,328","Thanakkankulam, Madurai, Tamil Nadu, India",9.8826931,78.04019
Thanjavur,Municipality,Thanjavur,"202,013","215,314","222,943","Thanjavur, Thanjavur, Tamil Nadu, India",10.7860267,79.1381497
Tharamangalam,Town Panchayat,Salem,"17,795","22,144","30,222","Tharamangalam, Salem, Tamil Nadu, India",11.6916951,77.96677
Tharangambadi,Town Panchayat,Nagapattinam,"18,881","20,843","23,191","Tharangambadi, Nagapattinam, Tamil Nadu, India",11.03082,79.851877
Thathaiyangarpet,Town Panchayat,Tiruchirappalli,...,"12,286","12,980","Thathaiyangarpet, Tiruchirappalli, Tamil Nadu, India",11.121255,78.4496465
Thazhakudy,Town Panchayat,Kanniyakumari,...,"8,568","8,992","Thazhakudy, Kanniyakumari, Tamil Nadu, India",8.2329741,77.453627
Thedavur,Town Panchayat,Salem,...,"7,461","8,230","Thedavur, Salem, Tamil Nadu, India",11.4943552,78.6972454
Thenambakkam,Census Town,Kanchipuram,...,"9,357","13,994","Thenambakkam, Kanchipuram, Tamil Nadu, India",12.8087798,79.7328998
Theni Allinagaram,Municipality,Theni,"66,050","85,498","94,453","Theni Allinagaram, Theni, Tamil Nadu, India",10.01456,77.477677
Thenthiruperai,Town Panchayat,Thoothukkudi,...,"5,096","4,934","Thenthiruperai, Thoothukkudi, Tamil Nadu, India",8.604305,77.9855821
Thevur,Town Panchayat,Salem,...,"8,115","8,548","Thevur, Salem, Tamil Nadu, India",11.5266869,77.7541079
Thikkanamcode,Census Town,Kanniyakumari,...,...,"14,086","Thikkanamcode, Kanniyakumari, Tamil Nadu, India",8.221252,77.2733491
Thindal,Census Town,Erode,...,...,"15,440","Thindal, Erode, Tamil Nadu, India",11.3197451,77.6759378
Thirukarungudi,Town Panchayat,Tirunelveli,...,"8,875","9,342","Thirukarungudi, Tirunelveli, Tamil Nadu, India",8.4362808,77.5656802
Thirumalayampalayam,Town Panchayat,Coimbatore,...,"11,136","12,164","Thirumalayampalayam, Coimbatore, Tamil Nadu, India",10.8794833,76.9296776
Thirumangalam (Tirumangalam),Municipality,Madurai,"34,601","43,631","51,194","Thirumangalam (Tirumangalam), Madurai, Tamil Nadu, India",9.8459909,77.9792228
Thirumazhisai,Town Panchayat,Thiruvallur,...,"16,291","19,733","Thirumazhisai, Thiruvallur, Tamil Nadu, India",13.0540139,80.0607568
Thirunagar,Town Panchayat,Madurai,...,"15,547","16,598","Thirunagar, Madurai, Tamil Nadu, India",9.9385046,78.0127284
Thirunageswaram,Town Panchayat,Thanjavur,...,"13,797","15,082","Thirunageswaram, Thanjavur, Tamil Nadu, India",10.9620594,79.4322506
Thiruneermalai,Town Panchayat,Kanchipuram,...,"19,228","30,702","Thiruneermalai, Kanchipuram, Tamil Nadu, India",12.9635669,80.0799866
Thiruparankundram,Municipality with Outgrowth,Madurai,"30,078","39,048","50,004","Thiruparankundram, Madurai, Tamil Nadu, India",9.8763294,78.071195
Thiruppalai,Census Town,Madurai,...,...,"19,305","Thiruppalai, Madurai, Tamil Nadu, India",9.9730664,78.139532
Thiruthangal,Municipality,Virudhunagar,"36,582","49,190","55,362","Thiruthangal, Virudhunagar, Tamil Nadu, India",9.4776401,77.8062084
Thiruthuraipoondi,Municipality,Thiruvarur,"23,328","22,905","24,404","Thiruthuraipoondi, Thiruvarur, Tamil Nadu, India",10.5317373,79.6400749
Thiruvaiyaru,Town Panchayat,Thanjavur,"14,495","14,511","16,164","Thiruvaiyaru, Thanjavur, Tamil Nadu, India",10.8797198,79.1039298
Thiruvalam,Town Panchayat,Vellore,...,"7,936","9,153","Thiruvalam, Vellore, Tamil Nadu, India",12.9857071,79.2638223
Thiruvallur (Tiruvallur),Municipality,Thiruvallur,"38,564","45,732","56,074","Thiruvallur (Tiruvallur), Thiruvallur, Tamil Nadu, India",13.1354377,79.9089289
Thiruvarur,Municipality,Thiruvarur,"49,195","56,341","58,301","Thiruvarur, Thiruvarur, Tamil Nadu, India",10.7666538,79.6352476
Thiruvattar,Town Panchayat,Kanniyakumari,...,"18,272","18,985","Thiruvattar, Kanniyakumari, Tamil Nadu, India",8.3305895,77.2655506
Thiruvennainallur,Town Panchayat,Viluppuram,...,"8,582","9,623","Thiruvennainallur, Viluppuram, Tamil Nadu, India",11.866427,79.4053467
Thiruverumbur,Town Panchayat,Tiruchirappalli,...,"16,824","23,156","Thiruverumbur, Tiruchirappalli, Tamil Nadu, India",10.7403972,78.7906188
Thiruvidaimarudur,Town Panchayat,Thanjavur,...,"13,765","14,786","Thiruvidaimarudur, Thanjavur, Tamil Nadu, India",11.0741829,79.4751594
Thisayanvilai,Town Panchayat,Tirunelveli,...,"19,559","23,702","Thisayanvilai, Tirunelveli, Tamil Nadu, India",8.3355721,77.8668199
Thondamuthur,Town Panchayat,Coimbatore,...,"9,340","11,492","Thondamuthur, Coimbatore, Tamil Nadu, India",10.9915465,76.8428673
Thondi,Town Panchayat,Ramanathapuram,...,"15,304","18,465","Thondi, Ramanathapuram, Tamil Nadu, India",9.7422651,79.0175877
Thoothukkudi (Thoothukudi),Municipal Corporation,Thoothukkudi,"199,854","216,054","237,830","Thoothukkudi (Thoothukudi), Thoothukkudi, Tamil Nadu, India",8.81038,78.133468
Thorapadi,Town Panchayat,Cuddalore,...,"5,523","7,659","Thorapadi, Cuddalore, Tamil Nadu, India",11.79507,79.529
Thottiyam,Town Panchayat,Tiruchirappalli,...,"13,683","14,909","Thottiyam, Tiruchirappalli, Tamil Nadu, India",11.0236496,78.2998582
Thudiyalur,Town Panchayat,Coimbatore,...,"21,004","33,924","Thudiyalur, Coimbatore, Tamil Nadu, India",11.0805532,76.9421498
Thuraiyur,Municipality,Tiruchirappalli,"27,640","31,005","32,439","Thuraiyur, Tiruchirappalli, Tamil Nadu, India",11.2302028,78.5650695
Thuvakudi,Municipality,Tiruchirappalli,...,"35,428","38,887","Thuvakudi, Tiruchirappalli, Tamil Nadu, India",10.7471515,78.821414
Timiri,Town Panchayat,Vellore,...,"14,953","16,246","Timiri, Vellore, Tamil Nadu, India",12.8167665,79.3106192
Tindivanam,Municipality,Viluppuram,"61,579","67,737","72,796","Tindivanam, Viluppuram, Tamil Nadu, India",12.2291607,79.6515314
Tiruchengode,Municipality,Namakkal,"63,027","80,187","95,335","Tiruchengode, Namakkal, Tamil Nadu, India",11.3786608,77.8949223
Tiruchirappalli,Municipal Corporation,Tiruchirappalli,"387,223","752,066","847,387","Tiruchirappalli, Tiruchirappalli, Tamil Nadu, India",10.8071144,78.6880939
Tirunelveli,Municipal Corporation,Tirunelveli,"135,825","411,831","473,637","Tirunelveli, Tirunelveli, Tamil Nadu, India",8.7331721,77.710255
Tirupattur,Census Town,Vellore,...,"13,377","19,487","Tirupattur, Vellore, Tamil Nadu, India",12.4967103,78.5660198
Tiruppur,Municipal Corporation,Tiruppur,"235,661","344,543","444,352","Tiruppur, Tiruppur, Tamil Nadu, India",11.1017815,77.345192
Tiruvannamalai,Municipality,Tiruvannamalai,"109,196","130,567","145,278","Tiruvannamalai, Tiruvannamalai, Tamil Nadu, India",12.2343228,79.0761989
Tiruvottiyur,Municipality,Thiruvallur,"168,642","212,281","249,446","Tiruvottiyur, Thiruvallur, Tamil Nadu, India",13.1563873,80.3005279
Tittakudi,Town Panchayat,Cuddalore,...,"20,735","22,894","Tittakudi, Cuddalore, Tamil Nadu, India",11.442171,79.1152555
T.Kallupatti,Town Panchayat,Madurai,...,"9,416","10,762","T.Kallupatti, Madurai, Tamil Nadu, India",9.7205512,77.8517326
TNPL Pugalur,Town Panchayat,Karur,...,"5,865","5,556","TNPL Pugalur, Karur, Tamil Nadu, India",11.0622422,77.992627
Udayarpalayam,Town Panchayat,Ariyalur,...,"11,320","12,688","Udayarpalayam, Ariyalur, Tamil Nadu, India",11.1588137,79.3444131
Udhagamandalam (Ooty),Municipality,The Nilgiris,"81,763","93,987","88,430","Udhagamandalam (Ooty), The Nilgiris, Tamil Nadu, India",11.4124436,76.7014757
Udumalaipettai,Municipality,Tiruppur,"58,678","59,668","61,133","Udumalaipettai, Tiruppur, Tamil Nadu, India",10.5839,77.25
Ullur,Census Town,Thanjavur,...,"7,781","11,673","Ullur, Thanjavur, Tamil Nadu, India",10.9712028,79.4018254
Ulundurpettai,Town Panchayat,Viluppuram,...,"19,258","23,734","Ulundurpettai, Viluppuram, Tamil Nadu, India",11.8420733,79.3508292
Unjalur,Town Panchayat,Erode,...,"2,628","2,482","Unjalur, Erode, Tamil Nadu, India",11.1296037,77.8767706
Unnamalaikadai,Town Panchayat,Kanniyakumari,...,"20,666","23,656","Unnamalaikadai, Kanniyakumari, Tamil Nadu, India",8.3067333,77.2400192
Uppidamangalam,Town Panchayat,Karur,...,"10,151","11,292","Uppidamangalam, Karur, Tamil Nadu, India",10.8946779,78.2001279
Urapakkam,Census Town,Kanchipuram,...,"13,445","29,122","Urapakkam, Kanchipuram, Tamil Nadu, India",12.8677022,80.0672078
Usilampatti,Municipality,Madurai,"26,413","30,601","35,219","Usilampatti, Madurai, Tamil Nadu, India",9.9709119,77.7932837
Usuppur,Census Town,Cuddalore,...,"8,043","8,221","Usuppur, Cuddalore, Tamil Nadu, India",11.3800758,79.7011874
Uthamapalayam,Town Panchayat,Theni,"22,703","22,104","29,050","Uthamapalayam, Theni, Tamil Nadu, India",9.7662548,77.3299043
Uthangarai,Town Panchayat,Krishnagiri,...,"15,443","18,470","Uthangarai, Krishnagiri, Tamil Nadu, India",12.2752798,78.4938829
Uthiramerur,Town Panchayat,Kanchipuram,"21,568","23,656","25,194","Uthiramerur, Kanchipuram, Tamil Nadu, India",12.6494251,79.7805747
Uthukuli,Town Panchayat,Tiruppur,...,"8,294","10,130","Uthukuli, Tiruppur, Tamil Nadu, India",11.2246324,77.4379375
Vadalur,Town Panchayat,Cuddalore,...,"26,016","39,514","Vadalur, Cuddalore, Tamil Nadu, India",11.5551872,79.555067
Vadamadurai,Town Panchayat,Dindigul,...,"15,549","18,015","Vadamadurai, Dindigul, Tamil Nadu, India",10.4409616,78.1008154
Vadavalli,Town Panchayat,Coimbatore,...,"24,779","39,873","Vadavalli, Coimbatore, Tamil Nadu, India",11.0253387,76.9051251
Vadipatti,Town Panchayat,Madurai,...,"21,833","26,830","Vadipatti, Madurai, Tamil Nadu, India",10.0790057,78.0360014
Vadugapatti,Town Panchayat,Erode,...,"10,921","9,657","Vadugapatti, Erode, Tamil Nadu, India",11.1416286,77.7216314
Vadugapatti,Town Panchayat,Theni,...,"12,377","13,204","Vadugapatti, Theni, Tamil Nadu, India",10.1051632,77.5710678
Valangaiman,Town Panchayat,Thiruvarur,...,"11,281","11,754","Valangaiman, Thiruvarur, Tamil Nadu, India",10.8561507,79.3570411
Valasaravakkam,Municipality,Thiruvallur,"21,953","30,978","47,378","Valasaravakkam, Thiruvallur, Tamil Nadu, India",13.0410164,80.1721682
Valathur,Census Town,Vellore,...,"5,102","5,529","Valathur, Vellore, Tamil Nadu, India",12.8795079,78.825734
Valavanur,Town Panchayat,Viluppuram,...,"14,083","16,745","Valavanur, Viluppuram, Tamil Nadu, India",11.9204953,79.5776739
Vallam,Town Panchayat,Thanjavur,...,"14,816","16,758","Vallam, Thanjavur, Tamil Nadu, India",10.7188244,79.0613163
Vallam,Census Town,Kanchipuram,...,"6,412","7,745","Vallam, Kanchipuram, Tamil Nadu, India",12.9117297,79.9217379
Valparai,Municipality,Coimbatore,"106,523","95,107","70,859","Valparai, Coimbatore, Tamil Nadu, India",10.3279931,76.9557258
Vanagaram,Census Town,Thiruvallur,...,...,"19,208","Vanagaram, Thiruvallur, Tamil Nadu, India",13.0604406,80.1533447
Vanavasi,Town Panchayat,Salem,...,"6,780","7,130","Vanavasi, Salem, Tamil Nadu, India",11.750905,77.8840495
Vandalur,Census Town,Kanchipuram,...,"13,375","16,852","Vandalur, Kanchipuram, Tamil Nadu, India",12.7980677,79.8196316
Vandavasi,Municipality,Tiruvannamalai,"24,578","29,610","31,320","Vandavasi, Tiruvannamalai, Tamil Nadu, India",12.5056013,79.6049607
Vandiyur,Census Town,Madurai,...,"21,977","28,646","Vandiyur, Madurai, Tamil Nadu, India",9.9155465,78.1609778
Vanganur,Census Town,Thiruvallur,...,"5,760","6,584","Vanganur, Thiruvallur, Tamil Nadu, India",13.1860003,79.4600028
Vaniputhur,Town Panchayat,Erode,...,"12,207","12,044","Vaniputhur, Erode, Tamil Nadu, India",11.5076289,77.3627483
Vaniyambadi,Municipality,Vellore,"72,426","85,752","95,061","Vaniyambadi, Vellore, Tamil Nadu, India",12.8536448,78.9625597
Vasudevanallur,Town Panchayat,Tirunelveli,...,"19,062","21,361","Vasudevanallur, Tirunelveli, Tamil Nadu, India",9.2367619,77.412869
Vavarai,Census Town,Kanniyakumari,...,...,"8,362","Vavarai, Kanniyakumari, Tamil Nadu, India",8.2916777,77.1620671
Vazhapadi,Town Panchayat,Salem,...,"16,104","17,559","Vazhapadi, Salem, Tamil Nadu, India",11.7056842,78.3573363
Vedapatti,Town Panchayat,Coimbatore,...,"9,732","11,658","Vedapatti, Coimbatore, Tamil Nadu, India",11.0024825,76.8924765
Vedaranyam,Municipality,Nagapattinam,"29,832","31,627","34,266","Vedaranyam, Nagapattinam, Tamil Nadu, India",10.4279477,79.7489583
Vedasandur,Town Panchayat,Dindigul,"7,541","10,813","11,730","Vedasandur, Dindigul, Tamil Nadu, India",10.5990268,78.0016771
Veeraganur,Town Panchayat,Salem,...,"10,547","11,624","Veeraganur, Salem, Tamil Nadu, India",11.4761379,78.7380844
Veerakeralam,Town Panchayat,Coimbatore,"10,572","19,994","23,841","Veerakeralam, Coimbatore, Tamil Nadu, India",11.006103,76.9122951
Veerapandi,Census Town,Tiruppur,"8,515","21,848","50,301","Veerapandi, Tiruppur, Tamil Nadu, India",11.0362152,77.3594759
Veerapandi,Town Panchayat,Coimbatore,"8,515","12,794","16,953","Veerapandi, Coimbatore, Tamil Nadu, India",11.0831289,76.8485978
Veerapandi,Town Panchayat,Theni,"9,325","14,294","16,158","Veerapandi, Theni, Tamil Nadu, India",9.9639112,77.4351032
Veeravanallur,Town Panchayat,Tirunelveli,...,"19,785","19,585","Veeravanallur, Tirunelveli, Tamil Nadu, India",8.6894559,77.5221777
Velampalayam,Municipality,Tiruppur,"26,248","45,679","87,427","Velampalayam, Tiruppur, Tamil Nadu, India",11.0532369,77.25502
Velankanni,Town Panchayat,Nagapattinam,...,"10,151","11,108","Velankanni, Nagapattinam, Tamil Nadu, India",10.6868771,79.8461807
Vellakinar,Town Panchayat,Coimbatore,...,"9,772","15,998","Vellakinar, Coimbatore, Tamil Nadu, India",11.0733308,76.9558099
Vellakkalpatty,Census Town,Salem,...,"5,475","5,475","Vellakkalpatty, Salem, Tamil Nadu, India",11.5494935,77.9034527
Vellakoil,Municipality,Tiruppur,...,"34,438","40,359","Vellakoil, Tiruppur, Tamil Nadu, India",10.7950722,77.5390839
Vellore,Municipal Corporation,Vellore,"175,061","177,230","185,803","Vellore, Vellore, Tamil Nadu, India",12.9071753,79.1309695
Velur,Town Panchayat,Namakkal,...,"18,413","25,012","Velur, Namakkal, Tamil Nadu, India",11.1864537,77.95902
Vembadithalam,Census Town,Salem,...,"6,022","7,331","Vembadithalam, Salem, Tamil Nadu, India",11.57176,78.00823
Venkarai,Town Panchayat,Namakkal,...,"8,928","9,330","Venkarai, Namakkal, Tamil Nadu, India",11.0927745,77.9516064
Venkatachalapuram,Census Town,Virudhunagar,...,...,"9,540","Venkatachalapuram, Virudhunagar, Tamil Nadu, India",9.3745449,77.9126143
Venkatapuram,Census Town,Krishnagiri,...,...,"7,430","Venkatapuram, Krishnagiri, Tamil Nadu, India",12.5274414,78.3572952
Veppathur,Town Panchayat,Thanjavur,...,"7,417","7,949","Veppathur, Thanjavur, Tamil Nadu, India",11.0105,79.4363
Verkilambi,Town Panchayat,Kanniyakumari,...,"18,003","19,730","Verkilambi, Kanniyakumari, Tamil Nadu, India",8.2953218,77.2929688
Vettaikaranpudur,Town Panchayat,Coimbatore,...,"18,360","17,392","Vettaikaranpudur, Coimbatore, Tamil Nadu, India",10.5644646,76.9173101
Vettavalam,Town Panchayat,Tiruvannamalai,...,"13,402","15,506","Vettavalam, Tiruvannamalai, Tamil Nadu, India",12.1102546,79.2454016
Vikramasingapuram,Municipality,Tirunelveli,"49,834","48,309","47,241","Vikramasingapuram, Tirunelveli, Tamil Nadu, India",8.7141792,77.3892867
Vikravandi,Town Panchayat,Viluppuram,...,"10,145","12,022","Vikravandi, Viluppuram, Tamil Nadu, India",12.0473092,79.4475687
Vilangudi,Town Panchayat,Madurai,"14,040","21,167","30,884","Vilangudi, Madurai, Tamil Nadu, India",9.9520462,78.083295
Vilankurichi,Census Town,Coimbatore,"5,130","9,124","24,235","Vilankurichi, Coimbatore, Tamil Nadu, India",11.0536863,76.9973661
Vilapakkam,Town Panchayat,Vellore,...,"8,052","8,174","Vilapakkam, Vellore, Tamil Nadu, India",12.8506178,79.2953877
Vilar,Census Town,Thanjavur,...,"5,628","9,028","Vilar, Thanjavur, Tamil Nadu, India",10.730722,79.1565148
Vilavancode,Census Town,Kanniyakumari,...,...,"6,731","Vilavancode, Kanniyakumari, Tamil Nadu, India",8.3830886,77.2056179
Villukuri,Town Panchayat,Kanniyakumari,...,"13,696","15,304","Villukuri, Kanniyakumari, Tamil Nadu, India",8.2231058,77.350582
Viluppuram,Municipality,Viluppuram,"88,788","95,455","96,253","Viluppuram, Viluppuram, Tamil Nadu, India",11.9137874,79.507893
Viraganur,Census Town,Madurai,...,"5,284","7,121","Viraganur, Madurai, Tamil Nadu, India",9.9005203,78.162842
Viralimalai,Census Town,Pudukkottai,...,"7,184","10,883","Viralimalai, Pudukkottai, Tamil Nadu, India",10.6022657,78.5470947
Virinchipuram,Census Town,Vellore,...,"6,245","7,699","Virinchipuram, Vellore, Tamil Nadu, India",12.9589543,79.0152159
Virudampattu,Census Town,Vellore,...,"5,352","7,662","Virudampattu, Vellore, Tamil Nadu, India",12.9400546,79.1220851
Virudhachalam,Municipality,Cuddalore,"52,819","60,164","73,585","Virudhachalam, Cuddalore, Tamil Nadu, India",11.5478752,79.38454
Virudhunagar,Municipality,Virudhunagar,"70,971","72,081","72,296","Virudhunagar, Virudhunagar, Tamil Nadu, India",9.5208936,77.8784564
Viswanatham,Census Town,Virudhunagar,"14,899","22,154","25,555","Viswanatham, Virudhunagar, Tamil Nadu, India",9.4211896,77.808584
V.Pudupatti,Town Panchayat,Virudhunagar,...,"7,855","8,316","V.Pudupatti, Virudhunagar, Tamil Nadu, India",9.4826697,77.5810818
Walajabad,Town Panchayat,Kanchipuram,"11,532","10,853","14,684","Walajabad, Kanchipuram, Tamil Nadu, India",12.7918106,79.828395
Walajapet,Municipality with Outgrowth,Vellore,"26,972","29,475","47,498","Walajapet, Vellore, Tamil Nadu, India",12.9291275,79.3638137
Wellington,Cantonment (Board),The Nilgiris,"19,764","20,217","19,462","Wellington, The Nilgiris, Tamil Nadu, India",11.3672532,76.7826466
Yercaud,Census Town,Salem,...,"8,750","11,582","Yercaud, Salem, Tamil Nadu, India",11.7852074,78.2075392
Zamin Uthukuli,Town Panchayat,Coimbatore,...,"14,859","16,354","Zamin Uthukuli, Coimbatore, Tamil Nadu, India",10.652022,76.9794072
Zuzuvadi,Census Town,Krishnagiri,...,...,"32,474","Zuzuvadi, Krishnagiri, Tamil Nadu, India",12.7695338,77.7885075
